{"type":"FeatureCollection","features":[{"type":"Feature","geometry":{"type":"Point","coordinates":[-117.9143012,33.8365932]},"properties":{"id":"1","address":"Anaheim,California,United States","place":"Radio City","date":"March 14, 1982","link":"https://www.metallica.com/events/event-9149.html","lng":-117.9143012,"lat":33.8365932}},{"type":"Feature","geometry":{"type":"Point","coordinates":[-118.3857624,34.09084800000001]},"properties":{"id":"2","address":"West Hollywood,California,United States","place":"Whisky A Go Go","date":"March 27, 1982","link":"https://www.metallica.com/events/event-9150.html","lng":-118.3857624,"lat":34.09084800000001}},{"type":"Feature","geometry":{"type":"Point","coordinates":[-118.3857624,34.09084800000001]},"properties":{"id":"3","address":"West Hollywood,California,United States","place":"Whisky A Go Go","date":"March 27, 1982","link":"https://www.metallica.com/events/event-9147.html","lng":-118.3857624,"lat":34.09084800000001}},{"type":"Feature","geometry":{"type":"Point","coordinates":[-117.9047429,33.6638439]},"properties":{"id":"4","address":"Costa Mesa,California,United States","place":"The Concert Factory","date":"April 23, 1982","link":"https://www.metallica.com/events/event-9151.html","lng":-117.9047429,"lat":33.6638439}},{"type":"Feature","geometry":{"type":"Point","coordinates":[-117.8900734,33.654364]},"properties":{"id":"5","address":"Costa Mesa,California,United States","place":"Backbay High School","date":"May 25, 1982","link":"https://www.metallica.com/events/event-9152.html","lng":-117.8900734,"lat":33.654364}},{"type":"Feature","geometry":{"type":"Point","coordinates":[-117.9047429,33.6638439]},"properties":{"id":"6","address":"Costa Mesa,California,United States","place":"The Concert Factory","date":"May 28, 1982","link":"https://www.metallica.com/events/event-9153.html","lng":-117.9047429,"lat":33.6638439}},{"type":"Feature","geometry":{"type":"Point","coordinates":[-117.9143012,33.8365932]},"properties":{"id":"7","address":"Anaheim,California,United States","place":"Radio City","date":"June 5, 1982","link":"https://www.metallica.com/events/event-9154.html","lng":-117.9143012,"lat":33.8365932}},{"type":"Feature","geometry":{"type":"Point","coordinates":[-117.9047429,33.6638439]},"properties":{"id":"8","address":"Costa Mesa,California,United States","place":"The Concert Factory","date":"June 26, 1982","link":"https://www.metallica.com/events/event-9155.html","lng":-117.9047429,"lat":33.6638439}},{"type":"Feature","geometry":{"type":"Point","coordinates":[-117.9047429,33.6638439]},"properties":{"id":"9","address":"Costa Mesa,California,United States","place":"The Concert Factory","date":"July 3, 1982","link":"https://www.metallica.com/events/event-9156.html","lng":-117.9047429,"lat":33.6638439}},{"type":"Feature","geometry":{"type":"Point","coordinates":[-118.3893421,34.0816324]},"properties":{"id":"10","address":"West Hollywood,California,United States","place":"Troubadour","date":"July 5, 1982","link":"https://www.metallica.com/events/event-9157.html","lng":-118.3893421,"lat":34.0816324}},{"type":"Feature","geometry":{"type":"Point","coordinates":[-117.9988026,33.6594835]},"properties":{"id":"11","address":"Huntington Beach,California,United States","place":"House Party","date":"July 15, 1982","link":"https://www.metallica.com/events/event-9158.html","lng":-117.9988026,"lat":33.6594835}},{"type":"Feature","geometry":{"type":"Point","coordinates":[-117.6981014,33.4672256]},"properties":{"id":"12","address":"Dana Point,California,United States","place":"House Party","date":"July 31, 1982","link":"https://www.metallica.com/events/event-9159.html","lng":-117.6981014,"lat":33.4672256}},{"type":"Feature","geometry":{"type":"Point","coordinates":[-118.3893421,34.0816324]},"properties":{"id":"13","address":"West Hollywood,California,United States","place":"Troubadour","date":"August 2, 1982","link":"https://www.metallica.com/events/event-9160.html","lng":-118.3893421,"lat":34.0816324}},{"type":"Feature","geometry":{"type":"Point","coordinates":[-118.3857624,34.09084800000001]},"properties":{"id":"14","address":"West Hollywood,California,United States","place":"Whisky A Go Go","date":"August 4, 1982","link":"https://www.metallica.com/events/event-9161.html","lng":-118.3857624,"lat":34.09084800000001}},{"type":"Feature","geometry":{"type":"Point","coordinates":[-118.1412638,33.7754998]},"properties":{"id":"15","address":"Long Beach,California,United States","place":"Bruin Den","date":"August 7, 1982","link":"https://www.metallica.com/events/event-9162.html","lng":-118.1412638,"lat":33.7754998}},{"type":"Feature","geometry":{"type":"Point","coordinates":[-118.3893421,34.0816324]},"properties":{"id":"16","address":"West Hollywood,California,United States","place":"Troubadour","date":"August 18, 1982","link":"https://www.metallica.com/events/event-9163.html","lng":-118.3893421,"lat":34.0816324}},{"type":"Feature","geometry":{"type":"Point","coordinates":[-117.9143012,33.8365932]},"properties":{"id":"17","address":"Anaheim,California,United States","place":"The Woodstock","date":"August 20, 1982","link":"https://www.metallica.com/events/event-9164.html","lng":-117.9143012,"lat":33.8365932}},{"type":"Feature","geometry":{"type":"Point","coordinates":[-118.3857624,34.09084800000001]},"properties":{"id":"18","address":"West Hollywood,California,United States","place":"Whisky A Go Go","date":"August 27, 1982","link":"https://www.metallica.com/events/event-9165.html","lng":-118.3857624,"lat":34.09084800000001}},{"type":"Feature","geometry":{"type":"Point","coordinates":[-118.3790527,34.17941649999999]},"properties":{"id":"19","address":"North Hollywood,California,United States","place":"H.J.'s","date":"August 29, 1982","link":"https://www.metallica.com/events/event-9166.html","lng":-118.3790527,"lat":34.17941649999999}},{"type":"Feature","geometry":{"type":"Point","coordinates":[-122.433859,37.8043976]},"properties":{"id":"20","address":"San Francisco,California,United States","place":"The Stone","date":"September 18, 1982","link":"https://www.metallica.com/events/event-9167.html","lng":-122.433859,"lat":37.8043976}},{"type":"Feature","geometry":{"type":"Point","coordinates":[-117.9143012,33.8365932]},"properties":{"id":"21","address":"Anaheim,California,United States","place":"The Woodstock","date":"October 1, 1982","link":"https://www.metallica.com/events/event-9168.html","lng":-117.9143012,"lat":33.8365932}},{"type":"Feature","geometry":{"type":"Point","coordinates":[-122.3999995,37.7956257]},"properties":{"id":"22","address":"San Francisco,California,United States","place":"Old Waldorf","date":"October 18, 1982","link":"https://www.metallica.com/events/event-9169.html","lng":-122.3999995,"lat":37.7956257}},{"type":"Feature","geometry":{"type":"Point","coordinates":[-117.9143012,33.8365932]},"properties":{"id":"23","address":"Anaheim,California,United States","place":"The Woodstock","date":"October 22, 1982","link":"https://www.metallica.com/events/event-9170.html","lng":-117.9143012,"lat":33.8365932}},{"type":"Feature","geometry":{"type":"Point","coordinates":[-117.9242123,33.8703645]},"properties":{"id":"24","address":"Fullerton,California,United States","place":"Billy Barty's Roller Rink","date":"October 23, 1982","link":"https://www.metallica.com/events/event-9171.html","lng":-117.9242123,"lat":33.8703645}},{"type":"Feature","geometry":{"type":"Point","coordinates":[-117.9143012,33.8365932]},"properties":{"id":"25","address":"Anaheim,California,United States","place":"The Woodstock","date":"November 11, 1982","link":"https://www.metallica.com/events/event-9172.html","lng":-117.9143012,"lat":33.8365932}},{"type":"Feature","geometry":{"type":"Point","coordinates":[-118.3893421,34.0816324]},"properties":{"id":"26","address":"West Hollywood,California,United States","place":"Troubadour","date":"November 25, 1982","link":"https://www.metallica.com/events/event-9173.html","lng":-118.3893421,"lat":34.0816324}},{"type":"Feature","geometry":{"type":"Point","coordinates":[-122.3999995,37.7956257]},"properties":{"id":"27","address":"San Francisco,California,United States","place":"Old Waldorf","date":"November 29, 1982","link":"https://www.metallica.com/events/event-9174.html","lng":-122.3999995,"lat":37.7956257}},{"type":"Feature","geometry":{"type":"Point","coordinates":[-122.4194155,37.7749295]},"properties":{"id":"28","address":"San Francisco,California,United States","place":"Mabuhay Gardens","date":"November 30, 1982","link":"https://www.metallica.com/events/event-9175.html","lng":-122.4194155,"lat":37.7749295}},{"type":"Feature","geometry":{"type":"Point","coordinates":[-122.433859,37.8043976]},"properties":{"id":"29","address":"San Francisco,California,United States","place":"The Stone","date":"March 5, 1983","link":"https://www.metallica.com/events/event-9176.html","lng":-122.433859,"lat":37.8043976}},{"type":"Feature","geometry":{"type":"Point","coordinates":[-122.433859,37.8043976]},"properties":{"id":"30","address":"San Francisco,California,United States","place":"The Stone","date":"March 19, 1983","link":"https://www.metallica.com/events/event-9177.html","lng":-122.433859,"lat":37.8043976}},{"type":"Feature","geometry":{"type":"Point","coordinates":[-73.986714,40.756954]},"properties":{"id":"31","address":"New York,New York,United States","place":"Paramount Theater","date":"April 8, 1983","link":"https://www.metallica.com/events/event-9178.html","lng":-73.986714,"lat":40.756954}},{"type":"Feature","geometry":{"type":"Point","coordinates":[-73.99433880000001,40.62403339999999]},"properties":{"id":"32","address":"Brooklyn,New York,United States","place":"L'Amour","date":"April 9, 1983","link":"https://www.metallica.com/events/event-9179.html","lng":-73.99433880000001,"lat":40.62403339999999}},{"type":"Feature","geometry":{"type":"Point","coordinates":[-74.5621025,40.883988]},"properties":{"id":"33","address":"Dover,New Jersey,United States","place":"The Showplace","date":"April 16, 1983","link":"https://www.metallica.com/events/event-9180.html","lng":-74.5621025,"lat":40.883988}},{"type":"Feature","geometry":{"type":"Point","coordinates":[-73.986714,40.756954]},"properties":{"id":"34","address":"New York,New York,United States","place":"Paramount Theater","date":"April 22, 1983","link":"https://www.metallica.com/events/event-9181.html","lng":-73.986714,"lat":40.756954}},{"type":"Feature","geometry":{"type":"Point","coordinates":[-73.986714,40.756954]},"properties":{"id":"35","address":"New York,New York,United States","place":"Paramount Theater","date":"April 24, 1983","link":"https://www.metallica.com/events/event-9182.html","lng":-73.986714,"lat":40.756954}},{"type":"Feature","geometry":{"type":"Point","coordinates":[-76.4427828,39.096369]},"properties":{"id":"36","address":"Pasadena,Maryland,United States","place":"The Sand Bar","date":"May 1, 1983","link":"https://www.metallica.com/events/event-9183.html","lng":-76.4427828,"lat":39.096369}},{"type":"Feature","geometry":{"type":"Point","coordinates":[-74.360846,40.45940210000001]},"properties":{"id":"37","address":"Sayreville,New York,United States","place":"Willy's","date":"May 7, 1983","link":"https://www.metallica.com/events/event-9184.html","lng":-74.360846,"lat":40.45940210000001}},{"type":"Feature","geometry":{"type":"Point","coordinates":[-74.4129284,40.4871698]},"properties":{"id":"38","address":"New Brunswick,New Jersey,United States","place":"Royal Manor","date":"July 27, 1983","link":"https://www.metallica.com/events/event-9185.html","lng":-74.4129284,"lat":40.4871698}},{"type":"Feature","geometry":{"type":"Point","coordinates":[-73.1894384,41.1792258]},"properties":{"id":"39","address":"Bridgeport,Connecticut,United States","place":"Utopia","date":"July 28, 1983","link":"https://www.metallica.com/events/event-9186.html","lng":-73.1894384,"lat":41.1792258}},{"type":"Feature","geometry":{"type":"Point","coordinates":[-73.8980047,40.9239582]},"properties":{"id":"40","address":"Yonkers,New York,United States","place":"Rising Sun","date":"July 29, 1983","link":"https://www.metallica.com/events/event-9187.html","lng":-73.8980047,"lat":40.9239582}},{"type":"Feature","geometry":{"type":"Point","coordinates":[-71.0588801,42.3600825]},"properties":{"id":"41","address":"Boston,Massachusetts,United States","place":"The Rat","date":"July 30, 1983","link":"https://www.metallica.com/events/event-9188.html","lng":-71.0588801,"lat":42.3600825}},{"type":"Feature","geometry":{"type":"Point","coordinates":[-71.0588801,42.3600825]},"properties":{"id":"42","address":"Boston,Massachusetts,United States","place":"The Rat","date":"July 31, 1983","link":"https://www.metallica.com/events/event-9189.html","lng":-71.0588801,"lat":42.3600825}},{"type":"Feature","geometry":{"type":"Point","coordinates":[-79.23532589999999,42.0970023]},"properties":{"id":"43","address":"Jamestown,New York,United States","place":"Melody Inn","date":"August 2, 1983","link":"https://www.metallica.com/events/event-9190.html","lng":-79.23532589999999,"lat":42.0970023}},{"type":"Feature","geometry":{"type":"Point","coordinates":[-78.8062948,42.8952084]},"properties":{"id":"44","address":"Buffalo,New York,United States","place":"Rooftop Skyroom","date":"August 3, 1983","link":"https://www.metallica.com/events/event-9191.html","lng":-78.8062948,"lat":42.8952084}},{"type":"Feature","geometry":{"type":"Point","coordinates":[-77.6088465,43.15657789999999]},"properties":{"id":"45","address":"Rochester,New York,United States","place":"Riverboat","date":"August 4, 1983","link":"https://www.metallica.com/events/event-9192.html","lng":-77.6088465,"lat":43.15657789999999}},{"type":"Feature","geometry":{"type":"Point","coordinates":[-73.88622210000001,40.7380924]},"properties":{"id":"46","address":"Elmhurst,New York,United States","place":"L'Amour East","date":"August 5, 1983","link":"https://www.metallica.com/events/event-9193.html","lng":-73.88622210000001,"lat":40.7380924}},{"type":"Feature","geometry":{"type":"Point","coordinates":[-73.99433880000001,40.62403339999999]},"properties":{"id":"47","address":"Brooklyn,New York,United States","place":"L'Amour","date":"August 6, 1983","link":"https://www.metallica.com/events/event-9194.html","lng":-73.99433880000001,"lat":40.62403339999999}},{"type":"Feature","geometry":{"type":"Point","coordinates":[-73.13496099999999,40.789142]},"properties":{"id":"48","address":"Long Island,New York,United States","place":"Cheers","date":"August 7, 1983","link":"https://www.metallica.com/events/event-9195.html","lng":-73.13496099999999,"lat":40.789142}},{"type":"Feature","geometry":{"type":"Point","coordinates":[-74.3079649,40.3407635]},"properties":{"id":"49","address":"Morganville,New Jersey,United States","place":"Sports 9 Skateway","date":"August 8, 1983","link":"https://www.metallica.com/events/event-9196.html","lng":-74.3079649,"lat":40.3407635}},{"type":"Feature","geometry":{"type":"Point","coordinates":[-76.6201842,39.2461841]},"properties":{"id":"50","address":"Baltimore,Maryland,United States","place":"Seagull Inn","date":"August 9, 1983","link":"https://www.metallica.com/events/event-9197.html","lng":-76.6201842,"lat":39.2461841}},{"type":"Feature","geometry":{"type":"Point","coordinates":[-76.616834,39.301761]},"properties":{"id":"51","address":"Baltimore,Maryland,United States","place":"Coast to Coast","date":"August 10, 1983","link":"https://www.metallica.com/events/event-9198.html","lng":-76.616834,"lat":39.301761}},{"type":"Feature","geometry":{"type":"Point","coordinates":[-87.6588094,41.94980959999999]},"properties":{"id":"52","address":"Chicago,Illinois,United States","place":"Metro","date":"August 12, 1983","link":"https://www.metallica.com/events/event-9199.html","lng":-87.6588094,"lat":41.94980959999999}},{"type":"Feature","geometry":{"type":"Point","coordinates":[-87.9064736,43.0389025]},"properties":{"id":"53","address":"Milwaukee,Wisconsin,United States","place":"Mickey's","date":"August 13, 1983","link":"https://www.metallica.com/events/event-9200.html","lng":-87.9064736,"lat":43.0389025}},{"type":"Feature","geometry":{"type":"Point","coordinates":[-91.57074209999999,35.3083426]},"properties":{"id":"54","address":"Bald Knob,Arkansas,United States","place":"Bald Knob Ampitheatre","date":"August 16, 1983","link":"https://www.metallica.com/events/event-9201.html","lng":-91.57074209999999,"lat":35.3083426}},{"type":"Feature","geometry":{"type":"Point","coordinates":[-91.99829199999999,34.2214613]},"properties":{"id":"55","address":"Pine Bluff,Arkansas,United States","place":"Pine Bluff Convention Center","date":"August 17, 1983","link":"https://www.metallica.com/events/event-9202.html","lng":-91.99829199999999,"lat":34.2214613}},{"type":"Feature","geometry":{"type":"Point","coordinates":[-93.13235150000001,35.2952346]},"properties":{"id":"56","address":"Russellville,Arkansas,United States","place":"Tucker Coliseum","date":"August 18, 1983","link":"https://www.metallica.com/events/event-9203.html","lng":-93.13235150000001,"lat":35.2952346}},{"type":"Feature","geometry":{"type":"Point","coordinates":[-94.04768820000001,33.425125]},"properties":{"id":"57","address":"Texarkana,Texas,United States","place":"Texarkana Community College","date":"August 19, 1983","link":"https://www.metallica.com/events/event-9204.html","lng":-94.04768820000001,"lat":33.425125}},{"type":"Feature","geometry":{"type":"Point","coordinates":[-94.5146616,35.4212021]},"properties":{"id":"58","address":"Roland,Oklahoma,United States","place":"Harry's","date":"August 20, 1983","link":"https://www.metallica.com/events/event-9205.html","lng":-94.5146616,"lat":35.4212021}},{"type":"Feature","geometry":{"type":"Point","coordinates":[-95.32327579999999,32.3453449]},"properties":{"id":"59","address":"Tyler,Texas,United States","place":"Harvey Hall","date":"August 22, 1983","link":"https://www.metallica.com/events/event-9206.html","lng":-95.32327579999999,"lat":32.3453449}},{"type":"Feature","geometry":{"type":"Point","coordinates":[-97.74260389999999,30.2677416]},"properties":{"id":"60","address":"Austin,Texas,United States","place":"The Nightlife","date":"August 24, 1983","link":"https://www.metallica.com/events/event-9207.html","lng":-97.74260389999999,"lat":30.2677416}},{"type":"Feature","geometry":{"type":"Point","coordinates":[-98.4945922,29.4251905]},"properties":{"id":"61","address":"San Antonio,Texas,United States","place":"Daddy's","date":"August 25, 1983","link":"https://www.metallica.com/events/event-9208.html","lng":-98.4945922,"lat":29.4251905}},{"type":"Feature","geometry":{"type":"Point","coordinates":[-102.4598922,31.8509006]},"properties":{"id":"62","address":"Odessa,Texas,United States","place":"Unknown Venue","date":"August 26, 1983","link":"https://www.metallica.com/events/event-9209.html","lng":-102.4598922,"lat":31.8509006}},{"type":"Feature","geometry":{"type":"Point","coordinates":[-103.3477839,34.1775401]},"properties":{"id":"63","address":"Portales,New Mexico,United States","place":"Eastern New Mexico University","date":"August 27, 1983","link":"https://www.metallica.com/events/event-9210.html","lng":-103.3477839,"lat":34.1775401}},{"type":"Feature","geometry":{"type":"Point","coordinates":[-106.7476339,32.2828894]},"properties":{"id":"64","address":"Las Cruces,New Mexico,United States","place":"Corbett Center Ballroom","date":"August 28, 1983","link":"https://www.metallica.com/events/event-9211.html","lng":-106.7476339,"lat":32.2828894}},{"type":"Feature","geometry":{"type":"Point","coordinates":[-118.2436849,34.0522342]},"properties":{"id":"65","address":"Los Angeles,California,United States","place":"Perkins Place","date":"August 29, 1983","link":"https://www.metallica.com/events/event-9212.html","lng":-118.2436849,"lat":34.0522342}},{"type":"Feature","geometry":{"type":"Point","coordinates":[-118.5360517,34.2011141]},"properties":{"id":"66","address":"Reseda,California,United States","place":"Country Club","date":"August 30, 1983","link":"https://www.metallica.com/events/event-9213.html","lng":-118.5360517,"lat":34.2011141}},{"type":"Feature","geometry":{"type":"Point","coordinates":[-122.1430195,37.4418834]},"properties":{"id":"67","address":"Palo Alto,California,United States","place":"Keystone","date":"September 1, 1983","link":"https://www.metallica.com/events/event-9214.html","lng":-122.1430195,"lat":37.4418834}},{"type":"Feature","geometry":{"type":"Point","coordinates":[-122.2710796,37.8593348]},"properties":{"id":"68","address":"Berkeley,California,United States","place":"Keystone","date":"September 2, 1983","link":"https://www.metallica.com/events/event-9215.html","lng":-122.2710796,"lat":37.8593348}},{"type":"Feature","geometry":{"type":"Point","coordinates":[-122.433859,37.8043976]},"properties":{"id":"69","address":"San Francisco,California,United States","place":"The Stone","date":"September 3, 1983","link":"https://www.metallica.com/events/event-9216.html","lng":-122.433859,"lat":37.8043976}},{"type":"Feature","geometry":{"type":"Point","coordinates":[-122.1430195,37.4418834]},"properties":{"id":"70","address":"Palo Alto,California,United States","place":"Keystone","date":"October 31, 1983","link":"https://www.metallica.com/events/event-9217.html","lng":-122.1430195,"lat":37.4418834}},{"type":"Feature","geometry":{"type":"Point","coordinates":[-118.5360517,34.2011141]},"properties":{"id":"71","address":"Reseda,California,United States","place":"Country Club","date":"November 4, 1983","link":"https://www.metallica.com/events/event-9218.html","lng":-118.5360517,"lat":34.2011141}},{"type":"Feature","geometry":{"type":"Point","coordinates":[-122.433859,37.8043976]},"properties":{"id":"72","address":"San Francisco,California,United States","place":"The Stone","date":"November 7, 1983","link":"https://www.metallica.com/events/event-9219.html","lng":-122.433859,"lat":37.8043976}},{"type":"Feature","geometry":{"type":"Point","coordinates":[-122.6783853,45.515232]},"properties":{"id":"73","address":"Portland,Oregon,United States","place":"Starry Night","date":"November 17, 1983","link":"https://www.metallica.com/events/event-9220.html","lng":-122.6783853,"lat":45.515232}},{"type":"Feature","geometry":{"type":"Point","coordinates":[-122.1426393,47.5963559]},"properties":{"id":"74","address":"Bellevue,Washington,United States","place":"Lake Hills Arena","date":"November 18, 1983","link":"https://www.metallica.com/events/event-9221.html","lng":-122.1426393,"lat":47.5963559}},{"type":"Feature","geometry":{"type":"Point","coordinates":[-122.1430195,37.4418834]},"properties":{"id":"75","address":"Palo Alto,California,United States","place":"Keystone","date":"November 24, 1983","link":"https://www.metallica.com/events/event-9222.html","lng":-122.1430195,"lat":37.4418834}},{"type":"Feature","geometry":{"type":"Point","coordinates":[-122.2710796,37.8593348]},"properties":{"id":"76","address":"Berkeley,California,United States","place":"Keystone","date":"November 25, 1983","link":"https://www.metallica.com/events/event-9223.html","lng":-122.2710796,"lat":37.8593348}},{"type":"Feature","geometry":{"type":"Point","coordinates":[-122.433859,37.8043976]},"properties":{"id":"77","address":"San Francisco,California,United States","place":"The Stone","date":"November 26, 1983","link":"https://www.metallica.com/events/event-9224.html","lng":-122.433859,"lat":37.8043976}},{"type":"Feature","geometry":{"type":"Point","coordinates":[-89.52414019999999,43.0771394]},"properties":{"id":"78","address":"Madison,Wisconsin,United States","place":"The Palms","date":"December 14, 1983","link":"https://www.metallica.com/events/event-9225.html","lng":-89.52414019999999,"lat":43.0771394}},{"type":"Feature","geometry":{"type":"Point","coordinates":[-87.6496156,41.9512089]},"properties":{"id":"79","address":"Chicago,Illinois,United States","place":"Broadway Jack's","date":"December 15, 1983","link":"https://www.metallica.com/events/event-9226.html","lng":-87.6496156,"lat":41.9512089}},{"type":"Feature","geometry":{"type":"Point","coordinates":[-87.6496156,41.9512089]},"properties":{"id":"80","address":"Chicago,Illinois,United States","place":"Broadway Jack's","date":"December 15, 1983","link":"https://www.metallica.com/events/event-9227.html","lng":-87.6496156,"lat":41.9512089}},{"type":"Feature","geometry":{"type":"Point","coordinates":[-81.6539535,41.5037002]},"properties":{"id":"81","address":"Cleveland,Ohio,United States","place":"Agora Theatre and Ballroom","date":"December 18, 1983","link":"https://www.metallica.com/events/event-9228.html","lng":-81.6539535,"lat":41.5037002}},{"type":"Feature","geometry":{"type":"Point","coordinates":[-74.2221155,40.4170948]},"properties":{"id":"82","address":"Aberdeen,New Jersey,United States","place":"Fountain Casino","date":"December 30, 1983","link":"https://www.metallica.com/events/event-9229.html","lng":-74.2221155,"lat":40.4170948}},{"type":"Feature","geometry":{"type":"Point","coordinates":[-73.8370786,40.9125992]},"properties":{"id":"83","address":"Mount Vernon,New York,United States","place":"The Left Bank","date":"December 31, 1983","link":"https://www.metallica.com/events/event-9230.html","lng":-73.8370786,"lat":40.9125992}},{"type":"Feature","geometry":{"type":"Point","coordinates":[-74.692663,41.3750937]},"properties":{"id":"84","address":"Port Jervis,New York,United States","place":"The State Theater","date":"January 7, 1984","link":"https://www.metallica.com/events/event-9231.html","lng":-74.692663,"lat":41.3750937}},{"type":"Feature","geometry":{"type":"Point","coordinates":[-77.6088465,43.15657789999999]},"properties":{"id":"85","address":"Rochester,New York,United States","place":"Riverboat","date":"January 11, 1984","link":"https://www.metallica.com/events/event-9232.html","lng":-77.6088465,"lat":43.15657789999999}},{"type":"Feature","geometry":{"type":"Point","coordinates":[-74.38598309999999,40.446495]},"properties":{"id":"86","address":"South River,New Jersey,United States","place":"Union Jack","date":"January 15, 1984","link":"https://www.metallica.com/events/event-9233.html","lng":-74.38598309999999,"lat":40.446495}},{"type":"Feature","geometry":{"type":"Point","coordinates":[-71.036847,42.3461283]},"properties":{"id":"87","address":"Boston,Massachusetts,United States","place":"The Channel","date":"January 18, 1984","link":"https://www.metallica.com/events/event-9234.html","lng":-71.036847,"lat":42.3461283}},{"type":"Feature","geometry":{"type":"Point","coordinates":[-74.42293409999999,41.4459271]},"properties":{"id":"88","address":"Middletown,New York,United States","place":"J. Bee's Rock III","date":"January 20, 1984","link":"https://www.metallica.com/events/event-9235.html","lng":-74.42293409999999,"lat":41.4459271}},{"type":"Feature","geometry":{"type":"Point","coordinates":[-73.70846449999999,40.6642699]},"properties":{"id":"89","address":"Valley Stream,New York,United States","place":"Rio Theatre","date":"January 21, 1984","link":"https://www.metallica.com/events/event-9236.html","lng":-73.70846449999999,"lat":40.6642699}},{"type":"Feature","geometry":{"type":"Point","coordinates":[-71.036847,42.3461283]},"properties":{"id":"90","address":"Boston,Massachusetts,United States","place":"The Channel","date":"January 22, 1984","link":"https://www.metallica.com/events/event-9237.html","lng":-71.036847,"lat":42.3461283}},{"type":"Feature","geometry":{"type":"Point","coordinates":[8.527135,47.3755922]},"properties":{"id":"91","address":"Zürich,Switzerland","place":"Volkshaus Zürich","date":"February 3, 1984","link":"https://www.metallica.com/events/event-9238.html","lng":8.527135,"lat":47.3755922}},{"type":"Feature","geometry":{"type":"Point","coordinates":[9.189982,45.4642035]},"properties":{"id":"92","address":"Milan,Italy","place":"Teatro Tenda","date":"February 5, 1984","link":"https://www.metallica.com/events/event-9239.html","lng":9.189982,"lat":45.4642035}},{"type":"Feature","geometry":{"type":"Point","coordinates":[11.0766654,49.4521018]},"properties":{"id":"93","address":"Nuremberg,Germany","place":"Hemmerleinhalle","date":"February 7, 1984","link":"https://www.metallica.com/events/event-9240.html","lng":11.0766654,"lat":49.4521018}},{"type":"Feature","geometry":{"type":"Point","coordinates":[2.2824065,48.8367519]},"properties":{"id":"94","address":"Paris,France","place":"Espace Balard","date":"February 9, 1984","link":"https://www.metallica.com/events/event-9241.html","lng":2.2824065,"lat":48.8367519}},{"type":"Feature","geometry":{"type":"Point","coordinates":[6.0813229,52.5111755]},"properties":{"id":"95","address":"Zwolle,Netherlands","place":"Aardshock Festival @ Ijsselhallen","date":"February 11, 1984","link":"https://www.metallica.com/events/event-9242.html","lng":6.0813229,"lat":52.5111755}},{"type":"Feature","geometry":{"type":"Point","coordinates":[2.726943,50.855593]},"properties":{"id":"96","address":"Poperinge,Belgium","place":"Maeckeblyde","date":"February 12, 1984","link":"https://www.metallica.com/events/event-9243.html","lng":2.726943,"lat":50.855593}},{"type":"Feature","geometry":{"type":"Point","coordinates":[-2.1751256,53.0230989]},"properties":{"id":"97","address":"Hanley,England","place":"Victoria Hall","date":"March 21, 1984","link":"https://www.metallica.com/events/event-12351.html","lng":-2.1751256,"lat":53.0230989}},{"type":"Feature","geometry":{"type":"Point","coordinates":[-0.2246149,51.4910564]},"properties":{"id":"98","address":"London,England","place":"Hammersmith Odeon","date":"March 22, 1984","link":"https://www.metallica.com/events/event-12352.html","lng":-0.2246149,"lat":51.4910564}},{"type":"Feature","geometry":{"type":"Point","coordinates":[-0.5225998,51.8878964]},"properties":{"id":"99","address":"Dunstable,England","place":"Queensway Hall","date":"March 23, 1984","link":"https://www.metallica.com/events/event-12353.html","lng":-0.5225998,"lat":51.8878964}},{"type":"Feature","geometry":{"type":"Point","coordinates":[-3.1680962,51.483707]},"properties":{"id":"100","address":"Cardiff,Wales","place":"New Ocean Club","date":"March 25, 1984","link":"https://www.metallica.com/events/event-12354.html","lng":-3.1680962,"lat":51.483707}},{"type":"Feature","geometry":{"type":"Point","coordinates":[-1.1540776,52.9560775]},"properties":{"id":"101","address":"Nottingham,England","place":"Rock City","date":"March 26, 1984","link":"https://www.metallica.com/events/event-12355.html","lng":-1.1540776,"lat":52.9560775}},{"type":"Feature","geometry":{"type":"Point","coordinates":[-0.133794,51.51421269999999]},"properties":{"id":"102","address":"London,England","place":"The Marquee Club","date":"March 27, 1984","link":"https://www.metallica.com/events/event-12357.html","lng":-0.133794,"lat":51.51421269999999}},{"type":"Feature","geometry":{"type":"Point","coordinates":[-2.4860359,53.7492497]},"properties":{"id":"103","address":"Blackburn,England","place":"King George's Hall","date":"March 27, 1984","link":"https://www.metallica.com/events/event-12356.html","lng":-2.4860359,"lat":53.7492497}},{"type":"Feature","geometry":{"type":"Point","coordinates":[-2.2221418,53.4695675]},"properties":{"id":"104","address":"Manchester,England","place":"Apollo Theatre","date":"March 29, 1984","link":"https://www.metallica.com/events/event-12358.html","lng":-2.2221418,"lat":53.4695675}},{"type":"Feature","geometry":{"type":"Point","coordinates":[-1.6118421,54.9933186]},"properties":{"id":"105","address":"Newcastle,England","place":"Mayfair","date":"March 30, 1984","link":"https://www.metallica.com/events/event-12359.html","lng":-1.6118421,"lat":54.9933186}},{"type":"Feature","geometry":{"type":"Point","coordinates":[-4.6401628,55.4606317]},"properties":{"id":"106","address":"Ayr,Scotland","place":"Ayr Pavilion","date":"April 1, 1984","link":"https://www.metallica.com/events/event-12360.html","lng":-4.6401628,"lat":55.4606317}},{"type":"Feature","geometry":{"type":"Point","coordinates":[-4.251806,55.864237]},"properties":{"id":"107","address":"Glasgow,Scotland","place":"Penthouse","date":"April 2, 1984","link":"https://www.metallica.com/events/event-12361.html","lng":-4.251806,"lat":55.864237}},{"type":"Feature","geometry":{"type":"Point","coordinates":[-1.8978794,52.476177]},"properties":{"id":"108","address":"Birmingham,England","place":"Odeon Theatre","date":"April 3, 1984","link":"https://www.metallica.com/events/event-12362.html","lng":-1.8978794,"lat":52.476177}},{"type":"Feature","geometry":{"type":"Point","coordinates":[-0.133794,51.51421269999999]},"properties":{"id":"109","address":"London,England","place":"The Marquee Club","date":"April 8, 1984","link":"https://www.metallica.com/events/event-12363.html","lng":-0.133794,"lat":51.51421269999999}},{"type":"Feature","geometry":{"type":"Point","coordinates":[4.4886952,52.1594801]},"properties":{"id":"110","address":"Leiden,Netherlands","place":"Stadsgehoorzaal Leiden","date":"June 6, 1984","link":"https://www.metallica.com/events/event-9244.html","lng":4.4886952,"lat":52.1594801}},{"type":"Feature","geometry":{"type":"Point","coordinates":[8.6821267,50.1109221]},"properties":{"id":"111","address":"Frankfurt,Germany","place":"Volkshildungsheim","date":"June 7, 1984","link":"https://www.metallica.com/events/event-9245.html","lng":8.6821267,"lat":50.1109221}},{"type":"Feature","geometry":{"type":"Point","coordinates":[6.9277696,52.3168387]},"properties":{"id":"112","address":"Oldenzaal,Netherlands","place":"Jumbo","date":"June 8, 1984","link":"https://www.metallica.com/events/event-9246.html","lng":6.9277696,"lat":52.3168387}},{"type":"Feature","geometry":{"type":"Point","coordinates":[6.0307255,53.25449380000001]},"properties":{"id":"113","address":"Zwaagwesteinde,Netherlands","place":"Evenmentenhal","date":"June 9, 1984","link":"https://www.metallica.com/events/event-9247.html","lng":6.0307255,"lat":53.25449380000001}},{"type":"Feature","geometry":{"type":"Point","coordinates":[2.7406008,50.84668370000001]},"properties":{"id":"114","address":"Poperinge,Belgium","place":"Heavy Sound Festival @ Don Bosco Sportsfields","date":"June 10, 1984","link":"https://www.metallica.com/events/event-9248.html","lng":2.7406008,"lat":50.84668370000001}},{"type":"Feature","geometry":{"type":"Point","coordinates":[-122.4194155,37.7749295]},"properties":{"id":"115","address":"San Francisco,California,United States","place":"Mabuhay Gardens","date":"July 20, 1984","link":"https://www.metallica.com/events/event-9249.html","lng":-122.4194155,"lat":37.7749295}},{"type":"Feature","geometry":{"type":"Point","coordinates":[-73.9839337,40.7632592]},"properties":{"id":"116","address":"New York,New York,United States","place":"Roseland Ballroom","date":"August 3, 1984","link":"https://www.metallica.com/events/event-9250.html","lng":-73.9839337,"lat":40.7632592}},{"type":"Feature","geometry":{"type":"Point","coordinates":[2.425377,48.936752]},"properties":{"id":"117","address":"Le Bourget,France","place":"Breaking Sound Festival @ La Rotonde","date":"August 29, 1984","link":"https://www.metallica.com/events/event-9251.html","lng":2.425377,"lat":48.936752}},{"type":"Feature","geometry":{"type":"Point","coordinates":[1.0658518,49.42380259999999]},"properties":{"id":"118","address":"Rouen,France","place":"Exo 7","date":"November 16, 1984","link":"https://www.metallica.com/events/event-9252.html","lng":1.0658518,"lat":49.42380259999999}},{"type":"Feature","geometry":{"type":"Point","coordinates":[2.726943,50.855593]},"properties":{"id":"119","address":"Poperinge,Belgium","place":"Maecke Blyde","date":"November 17, 1984","link":"https://www.metallica.com/events/event-9253.html","lng":2.726943,"lat":50.855593}},{"type":"Feature","geometry":{"type":"Point","coordinates":[2.2824065,48.8367519]},"properties":{"id":"120","address":"Paris,France","place":"Espace Balard","date":"November 18, 1984","link":"https://www.metallica.com/events/event-9254.html","lng":2.2824065,"lat":48.8367519}},{"type":"Feature","geometry":{"type":"Point","coordinates":[4.835659,45.764043]},"properties":{"id":"121","address":"Lyon,France","place":"Palais D'Hiver","date":"November 20, 1984","link":"https://www.metallica.com/events/event-9255.html","lng":4.835659,"lat":45.764043}},{"type":"Feature","geometry":{"type":"Point","coordinates":[5.395887300000001,43.269827]},"properties":{"id":"122","address":"Marseilles,France","place":"Stade Vélodrome","date":"November 21, 1984","link":"https://www.metallica.com/events/event-9256.html","lng":5.395887300000001,"lat":43.269827}},{"type":"Feature","geometry":{"type":"Point","coordinates":[1.444209,43.604652]},"properties":{"id":"123","address":"Toulouse,France","place":"Le Riff","date":"November 22, 1984","link":"https://www.metallica.com/events/event-9257.html","lng":1.444209,"lat":43.604652}},{"type":"Feature","geometry":{"type":"Point","coordinates":[-0.5788325999999999,44.8570819]},"properties":{"id":"124","address":"Bordeaux,France","place":"Salle des Fêtes du Grand Parc","date":"November 23, 1984","link":"https://www.metallica.com/events/event-9258.html","lng":-0.5788325999999999,"lat":44.8570819}},{"type":"Feature","geometry":{"type":"Point","coordinates":[3.9364821,43.5757032]},"properties":{"id":"125","address":"Montpellier,France","place":"Grand Odeon","date":"November 24, 1984","link":"https://www.metallica.com/events/event-9259.html","lng":3.9364821,"lat":43.5757032}},{"type":"Feature","geometry":{"type":"Point","coordinates":[7.2678184,43.695449]},"properties":{"id":"126","address":"Nice,France","place":"Théâtre de Verdure","date":"November 25, 1984","link":"https://www.metallica.com/events/event-9260.html","lng":7.2678184,"lat":43.695449}},{"type":"Feature","geometry":{"type":"Point","coordinates":[9.189982,45.4642035]},"properties":{"id":"127","address":"Milan,Italy","place":"Teatro Tenda","date":"November 27, 1984","link":"https://www.metallica.com/events/event-9261.html","lng":9.189982,"lat":45.4642035}},{"type":"Feature","geometry":{"type":"Point","coordinates":[8.527135,47.3755922]},"properties":{"id":"128","address":"Zürich,Switzerland","place":"Volkshaus Zürich","date":"November 30, 1984","link":"https://www.metallica.com/events/event-9262.html","lng":8.527135,"lat":47.3755922}},{"type":"Feature","geometry":{"type":"Point","coordinates":[8.2472526,49.9928617]},"properties":{"id":"129","address":"Mainz,Germany","place":"Elzer Hof","date":"December 1, 1984","link":"https://www.metallica.com/events/event-12364.html","lng":8.2472526,"lat":49.9928617}},{"type":"Feature","geometry":{"type":"Point","coordinates":[11.0766654,49.4521018]},"properties":{"id":"130","address":"Nuremberg,Germany","place":"Hemmerleinhalle","date":"December 2, 1984","link":"https://www.metallica.com/events/event-9263.html","lng":11.0766654,"lat":49.4521018}},{"type":"Feature","geometry":{"type":"Point","coordinates":[8.48433,49.52345]},"properties":{"id":"131","address":"Mannheim,Germany","place":"Kulturhaus","date":"December 3, 1984","link":"https://www.metallica.com/events/event-9264.html","lng":8.48433,"lat":49.52345}},{"type":"Feature","geometry":{"type":"Point","coordinates":[9.0044053,48.7074558]},"properties":{"id":"132","address":"Sindelfingen,Germany","place":"Ausstellungshalle","date":"December 4, 1984","link":"https://www.metallica.com/events/event-9265.html","lng":9.0044053,"lat":48.7074558}},{"type":"Feature","geometry":{"type":"Point","coordinates":[7.0050469,50.9600668]},"properties":{"id":"133","address":"Cologne,Germany","place":"Stadthalle Mülheim","date":"December 5, 1984","link":"https://www.metallica.com/events/event-9266.html","lng":7.0050469,"lat":50.9600668}},{"type":"Feature","geometry":{"type":"Point","coordinates":[4.8838059,52.3621619]},"properties":{"id":"134","address":"Amsterdam,Netherlands","place":"Paradiso","date":"December 7, 1984","link":"https://www.metallica.com/events/event-9267.html","lng":4.8838059,"lat":52.3621619}},{"type":"Feature","geometry":{"type":"Point","coordinates":[8.0673043,52.2833079]},"properties":{"id":"135","address":"Osnabrück,Germany","place":"Halle Gartlage","date":"December 8, 1984","link":"https://www.metallica.com/events/event-12365.html","lng":8.0673043,"lat":52.2833079}},{"type":"Feature","geometry":{"type":"Point","coordinates":[10.0068536,53.5494431]},"properties":{"id":"136","address":"Hamburg,Germany","place":"Markthalle","date":"December 9, 1984","link":"https://www.metallica.com/events/event-9268.html","lng":10.0068536,"lat":53.5494431}},{"type":"Feature","geometry":{"type":"Point","coordinates":[10.3908569,55.4254293]},"properties":{"id":"137","address":"Copenhagen,Denmark","place":"Saga","date":"December 11, 1984","link":"https://www.metallica.com/events/event-9269.html","lng":10.3908569,"lat":55.4254293}},{"type":"Feature","geometry":{"type":"Point","coordinates":[18.0737802,59.3138338]},"properties":{"id":"138","address":"Stockholm,Sweden","place":"Göta Lejon","date":"December 12, 1984","link":"https://www.metallica.com/events/event-9270.html","lng":18.0737802,"lat":59.3138338}},{"type":"Feature","geometry":{"type":"Point","coordinates":[22.753741,60.57986]},"properties":{"id":"139","address":"Lieto,Finland","place":"Tarvashovi","date":"December 14, 1984","link":"https://www.metallica.com/events/event-9271.html","lng":22.753741,"lat":60.57986}},{"type":"Feature","geometry":{"type":"Point","coordinates":[24.9486454,63.9339259]},"properties":{"id":"140","address":"Nivala,Finland","place":"Tuiskula","date":"December 15, 1984","link":"https://www.metallica.com/events/event-9272.html","lng":24.9486454,"lat":63.9339259}},{"type":"Feature","geometry":{"type":"Point","coordinates":[24.9442883,60.18833970000001]},"properties":{"id":"141","address":"Helsinki,Finland","place":"Kulttuuritalo","date":"December 16, 1984","link":"https://www.metallica.com/events/event-9273.html","lng":24.9442883,"lat":60.18833970000001}},{"type":"Feature","geometry":{"type":"Point","coordinates":[-0.1200807,51.5115402]},"properties":{"id":"142","address":"London,England","place":"Lyceum","date":"December 20, 1984","link":"https://www.metallica.com/events/event-12366.html","lng":-0.1200807,"lat":51.5115402}},{"type":"Feature","geometry":{"type":"Point","coordinates":[-71.036847,42.3461283]},"properties":{"id":"143","address":"Boston,Massachusetts,United States","place":"The Channel","date":"January 9, 1985","link":"https://www.metallica.com/events/event-9274.html","lng":-71.036847,"lat":42.3461283}},{"type":"Feature","geometry":{"type":"Point","coordinates":[-73.9642915,42.8264652]},"properties":{"id":"144","address":"Scotia,New York,United States","place":"Skyway Club","date":"January 10, 1985","link":"https://www.metallica.com/events/event-9275.html","lng":-73.9642915,"lat":42.8264652}},{"type":"Feature","geometry":{"type":"Point","coordinates":[-72.6733723,41.7658043]},"properties":{"id":"145","address":"Hartford,Connecticut,United States","place":"Agora","date":"January 11, 1985","link":"https://www.metallica.com/events/event-9276.html","lng":-72.6733723,"lat":41.7658043}},{"type":"Feature","geometry":{"type":"Point","coordinates":[-75.2585886,39.9610215]},"properties":{"id":"146","address":"Philadelphia,Pennsylvania,United States","place":"Tower Theatre","date":"January 12, 1985","link":"https://www.metallica.com/events/event-9277.html","lng":-75.2585886,"lat":39.9610215}},{"type":"Feature","geometry":{"type":"Point","coordinates":[-76.616834,39.301761]},"properties":{"id":"147","address":"Baltimore,Maryland,United States","place":"Coast to Coast","date":"January 13, 1985","link":"https://www.metallica.com/events/event-9278.html","lng":-76.616834,"lat":39.301761}},{"type":"Feature","geometry":{"type":"Point","coordinates":[-73.68999749999999,45.4392895]},"properties":{"id":"148","address":"Montreal,Quebec,Canada","place":"Spectrum","date":"January 15, 1985","link":"https://www.metallica.com/events/event-9279.html","lng":-73.68999749999999,"lat":45.4392895}},{"type":"Feature","geometry":{"type":"Point","coordinates":[-73.68999749999999,45.4392895]},"properties":{"id":"149","address":"Montreal,Quebec,Canada","place":"Spectrum","date":"January 16, 1985","link":"https://www.metallica.com/events/event-9280.html","lng":-73.68999749999999,"lat":45.4392895}},{"type":"Feature","geometry":{"type":"Point","coordinates":[-71.286515,46.7862941]},"properties":{"id":"150","address":"Quebec City,Quebec,Canada","place":"Salle Albert Rousseau","date":"January 17, 1985","link":"https://www.metallica.com/events/event-9281.html","lng":-71.286515,"lat":46.7862941}},{"type":"Feature","geometry":{"type":"Point","coordinates":[-75.769269,45.3727321]},"properties":{"id":"151","address":"Ottawa,Ontario,Canada","place":"Ottawa Civic Centre Salons","date":"January 18, 1985","link":"https://www.metallica.com/events/event-9282.html","lng":-75.769269,"lat":45.3727321}},{"type":"Feature","geometry":{"type":"Point","coordinates":[-79.3881371,43.67310550000001]},"properties":{"id":"152","address":"Toronto,Ontario,Canada","place":"Concert Hall","date":"January 19, 1985","link":"https://www.metallica.com/events/event-9283.html","lng":-79.3881371,"lat":43.67310550000001}},{"type":"Feature","geometry":{"type":"Point","coordinates":[-78.875931,42.881569]},"properties":{"id":"153","address":"Buffalo,New York,United States","place":"Salty Dog","date":"January 20, 1985","link":"https://www.metallica.com/events/event-9284.html","lng":-78.875931,"lat":42.881569}},{"type":"Feature","geometry":{"type":"Point","coordinates":[-75.6804964,41.412083]},"properties":{"id":"154","address":"Scranton,Pennsylvania,United States","place":"West Side Theatre","date":"January 22, 1985","link":"https://www.metallica.com/events/event-9285.html","lng":-75.6804964,"lat":41.412083}},{"type":"Feature","geometry":{"type":"Point","coordinates":[-73.9297923,41.7050768]},"properties":{"id":"155","address":"Poughkeepsie,New York,United States","place":"Mid-Hudson Civic Center","date":"January 23, 1985","link":"https://www.metallica.com/events/event-9286.html","lng":-73.9297923,"lat":41.7050768}},{"type":"Feature","geometry":{"type":"Point","coordinates":[-73.99433880000001,40.62403339999999]},"properties":{"id":"156","address":"Brooklyn,New York,United States","place":"L'Amour","date":"January 25, 1985","link":"https://www.metallica.com/events/event-9287.html","lng":-73.99433880000001,"lat":40.62403339999999}},{"type":"Feature","geometry":{"type":"Point","coordinates":[-73.99433880000001,40.62403339999999]},"properties":{"id":"157","address":"Brooklyn,New York,United States","place":"L'Amour","date":"January 26, 1985","link":"https://www.metallica.com/events/event-9288.html","lng":-73.99433880000001,"lat":40.62403339999999}},{"type":"Feature","geometry":{"type":"Point","coordinates":[-73.99433880000001,40.62403339999999]},"properties":{"id":"158","address":"Brooklyn,New York,United States","place":"L'Amour","date":"January 27, 1985","link":"https://www.metallica.com/events/event-9289.html","lng":-73.99433880000001,"lat":40.62403339999999}},{"type":"Feature","geometry":{"type":"Point","coordinates":[-83.0074049,39.9974613]},"properties":{"id":"159","address":"Columbus,Ohio,United States","place":"Newport Music Hall","date":"January 28, 1985","link":"https://www.metallica.com/events/event-9290.html","lng":-83.0074049,"lat":39.9974613}},{"type":"Feature","geometry":{"type":"Point","coordinates":[-84.4742827,39.1219104]},"properties":{"id":"160","address":"Cincinnati,Ohio,United States","place":"Annie's Riverside Saloon","date":"January 29, 1985","link":"https://www.metallica.com/events/event-9291.html","lng":-84.4742827,"lat":39.1219104}},{"type":"Feature","geometry":{"type":"Point","coordinates":[-86.158068,39.768403]},"properties":{"id":"161","address":"Indianapolis,Indiana,United States","place":"Sherwood Country Club","date":"January 30, 1985","link":"https://www.metallica.com/events/event-9292.html","lng":-86.158068,"lat":39.768403}},{"type":"Feature","geometry":{"type":"Point","coordinates":[-83.1474533,42.4876937]},"properties":{"id":"162","address":"Detroit,Michigan,United States","place":"Royal Oak Music Theatre","date":"February 1, 1985","link":"https://www.metallica.com/events/event-9293.html","lng":-83.1474533,"lat":42.4876937}},{"type":"Feature","geometry":{"type":"Point","coordinates":[-81.61577319999999,41.5079342]},"properties":{"id":"163","address":"Cleveland,Ohio,United States","place":"Variety Theatre","date":"February 2, 1985","link":"https://www.metallica.com/events/event-9297.html","lng":-81.61577319999999,"lat":41.5079342}},{"type":"Feature","geometry":{"type":"Point","coordinates":[-85.5832891,42.2884239]},"properties":{"id":"164","address":"Kalamazoo,Michigan,United States","place":"State Theatre","date":"February 3, 1985","link":"https://www.metallica.com/events/event-9294.html","lng":-85.5832891,"lat":42.2884239}},{"type":"Feature","geometry":{"type":"Point","coordinates":[-89.4007501,43.0721661]},"properties":{"id":"165","address":"Madison,Wisconsin,United States","place":"Headliners","date":"February 5, 1985","link":"https://www.metallica.com/events/event-9295.html","lng":-89.4007501,"lat":43.0721661}},{"type":"Feature","geometry":{"type":"Point","coordinates":[-93.2759978,44.9785315]},"properties":{"id":"166","address":"Minneapolis,Minnesota,United States","place":"First Avenue","date":"February 6, 1985","link":"https://www.metallica.com/events/event-9296.html","lng":-93.2759978,"lat":44.9785315}},{"type":"Feature","geometry":{"type":"Point","coordinates":[-87.9433123,43.0379175]},"properties":{"id":"167","address":"Milwaukee,Wisconsin,United States","place":"Eagles Ballroom","date":"February 8, 1985","link":"https://www.metallica.com/events/event-9298.html","lng":-87.9433123,"lat":43.0379175}},{"type":"Feature","geometry":{"type":"Point","coordinates":[-87.6578703,41.9693569]},"properties":{"id":"168","address":"Chicago,Illinois,United States","place":"Aragon Ballroom","date":"February 9, 1985","link":"https://www.metallica.com/events/event-9299.html","lng":-87.6578703,"lat":41.9693569}},{"type":"Feature","geometry":{"type":"Point","coordinates":[-88.0559638,44.5241508]},"properties":{"id":"169","address":"Green Bay,Wisconsin,United States","place":"Carlton West","date":"February 10, 1985","link":"https://www.metallica.com/events/event-9300.html","lng":-88.0559638,"lat":44.5241508}},{"type":"Feature","geometry":{"type":"Point","coordinates":[-91.69004079999999,41.9648982]},"properties":{"id":"170","address":"Cedar Rapids,Iowa,United States","place":"Veterans Memorial Coliseum","date":"February 13, 1985","link":"https://www.metallica.com/events/event-9301.html","lng":-91.69004079999999,"lat":41.9648982}},{"type":"Feature","geometry":{"type":"Point","coordinates":[-91.0998486,40.8091655]},"properties":{"id":"171","address":"Burlington,Iowa,United States","place":"Burlington Memorial Auditorium","date":"February 14, 1985","link":"https://www.metallica.com/events/event-9302.html","lng":-91.0998486,"lat":40.8091655}},{"type":"Feature","geometry":{"type":"Point","coordinates":[-90.19940419999999,38.6270025]},"properties":{"id":"172","address":"St. Louis,Missouri,United States","place":"Reflections","date":"February 15, 1985","link":"https://www.metallica.com/events/event-9303.html","lng":-90.19940419999999,"lat":38.6270025}},{"type":"Feature","geometry":{"type":"Point","coordinates":[-94.59082959999999,39.06113089999999]},"properties":{"id":"173","address":"Kansas City,Missouri,United States","place":"Uptown Theater","date":"February 16, 1985","link":"https://www.metallica.com/events/event-9304.html","lng":-94.59082959999999,"lat":39.06113089999999}},{"type":"Feature","geometry":{"type":"Point","coordinates":[-97.4708,37.668102]},"properties":{"id":"174","address":"Wichita,Kansas,United States","place":"Cotillion","date":"February 17, 1985","link":"https://www.metallica.com/events/event-9305.html","lng":-97.4708,"lat":37.668102}},{"type":"Feature","geometry":{"type":"Point","coordinates":[-95.994941,36.160996]},"properties":{"id":"175","address":"Tulsa,Oklahoma,United States","place":"Cain's Ballroom","date":"February 20, 1985","link":"https://www.metallica.com/events/event-9306.html","lng":-95.994941,"lat":36.160996}},{"type":"Feature","geometry":{"type":"Point","coordinates":[-97.6878708,30.1590499]},"properties":{"id":"176","address":"Austin,Texas,United States","place":"City Coliseum","date":"February 21, 1985","link":"https://www.metallica.com/events/event-9307.html","lng":-97.6878708,"lat":30.1590499}},{"type":"Feature","geometry":{"type":"Point","coordinates":[-97.39638099999999,27.8005828]},"properties":{"id":"177","address":"Corpus Christi,Texas,United States","place":"Ritz Music Hall","date":"February 22, 1985","link":"https://www.metallica.com/events/event-9308.html","lng":-97.39638099999999,"lat":27.8005828}},{"type":"Feature","geometry":{"type":"Point","coordinates":[-98.47931,29.422136]},"properties":{"id":"178","address":"San Antonio,Texas,United States","place":"Cameo Theater","date":"February 25, 1985","link":"https://www.metallica.com/events/event-9309.html","lng":-98.47931,"lat":29.422136}},{"type":"Feature","geometry":{"type":"Point","coordinates":[-95.3698028,29.7604267]},"properties":{"id":"179","address":"Houston,Texas,United States","place":"Cardi's","date":"February 26, 1985","link":"https://www.metallica.com/events/event-9310.html","lng":-95.3698028,"lat":29.7604267}},{"type":"Feature","geometry":{"type":"Point","coordinates":[-96.9133283,32.7432426]},"properties":{"id":"180","address":"Dallas,Texas,United States","place":"Arcadia","date":"February 27, 1985","link":"https://www.metallica.com/events/event-9311.html","lng":-96.9133283,"lat":32.7432426}},{"type":"Feature","geometry":{"type":"Point","coordinates":[-95.3698028,29.7604267]},"properties":{"id":"181","address":"Houston,Texas,United States","place":"Cardi's","date":"February 28, 1985","link":"https://www.metallica.com/events/event-9312.html","lng":-95.3698028,"lat":29.7604267}},{"type":"Feature","geometry":{"type":"Point","coordinates":[-74.0059728,40.7127753]},"properties":{"id":"182","address":"El Paso,Texas,United States","place":"The Big Apple Night Club","date":"March 2, 1985","link":"https://www.metallica.com/events/event-9313.html","lng":-74.0059728,"lat":40.7127753}},{"type":"Feature","geometry":{"type":"Point","coordinates":[-106.58889,35.129328]},"properties":{"id":"183","address":"Albuquerque,New Mexico,United States","place":"Graham Central Station","date":"March 3, 1985","link":"https://www.metallica.com/events/event-9314.html","lng":-106.58889,"lat":35.129328}},{"type":"Feature","geometry":{"type":"Point","coordinates":[-104.7141529,38.8655541]},"properties":{"id":"184","address":"Colorado Springs,Colorado,United States","place":"DJ's","date":"March 4, 1985","link":"https://www.metallica.com/events/event-9315.html","lng":-104.7141529,"lat":38.8655541}},{"type":"Feature","geometry":{"type":"Point","coordinates":[-104.990251,39.7392358]},"properties":{"id":"185","address":"Denver,Colorado,United States","place":"Rainbow Music Hall","date":"March 5, 1985","link":"https://www.metallica.com/events/event-9316.html","lng":-104.990251,"lat":39.7392358}},{"type":"Feature","geometry":{"type":"Point","coordinates":[-117.1610838,32.715738]},"properties":{"id":"186","address":"San Diego,California,United States","place":"The Backdoor","date":"March 9, 1985","link":"https://www.metallica.com/events/event-9317.html","lng":-117.1610838,"lat":32.715738}},{"type":"Feature","geometry":{"type":"Point","coordinates":[-118.3242781,34.098496]},"properties":{"id":"187","address":"Los Angeles,California,United States","place":"Hollywood Palladium","date":"March 10, 1985","link":"https://www.metallica.com/events/event-9318.html","lng":-118.3242781,"lat":34.098496}},{"type":"Feature","geometry":{"type":"Point","coordinates":[-112.1378052,33.4578667]},"properties":{"id":"188","address":"Phoenix,Arizona,United States","place":"Palace West","date":"March 11, 1985","link":"https://www.metallica.com/events/event-9319.html","lng":-112.1378052,"lat":33.4578667}},{"type":"Feature","geometry":{"type":"Point","coordinates":[-122.1430195,37.4418834]},"properties":{"id":"189","address":"Palo Alto,California,United States","place":"Keystone","date":"March 13, 1985","link":"https://www.metallica.com/events/event-9320.html","lng":-122.1430195,"lat":37.4418834}},{"type":"Feature","geometry":{"type":"Point","coordinates":[-122.4325232,37.7849354]},"properties":{"id":"190","address":"San Francisco,California,United States","place":"Kabuki Theater","date":"March 14, 1985","link":"https://www.metallica.com/events/event-9321.html","lng":-122.4325232,"lat":37.7849354}},{"type":"Feature","geometry":{"type":"Point","coordinates":[-122.4325232,37.7849354]},"properties":{"id":"191","address":"San Francisco,California,United States","place":"Kabuki Theater","date":"March 15, 1985","link":"https://www.metallica.com/events/event-9322.html","lng":-122.4325232,"lat":37.7849354}},{"type":"Feature","geometry":{"type":"Point","coordinates":[-122.3413928,47.6117575]},"properties":{"id":"192","address":"Seattle,Washington,United States","place":"Moore Theater","date":"March 17, 1985","link":"https://www.metallica.com/events/event-9323.html","lng":-122.3413928,"lat":47.6117575}},{"type":"Feature","geometry":{"type":"Point","coordinates":[-123.0706377,49.2786653]},"properties":{"id":"193","address":"Vancouver,British Columbia,Canada","place":"New York Theatre","date":"March 18, 1985","link":"https://www.metallica.com/events/event-9324.html","lng":-123.0706377,"lat":49.2786653}},{"type":"Feature","geometry":{"type":"Point","coordinates":[-122.6783853,45.515232]},"properties":{"id":"194","address":"Portland,Oregon,United States","place":"Starry Night","date":"March 19, 1985","link":"https://www.metallica.com/events/event-9325.html","lng":-122.6783853,"lat":45.515232}},{"type":"Feature","geometry":{"type":"Point","coordinates":[-1.3788403,52.8305468]},"properties":{"id":"195","address":"Castle Donington,England","place":"Monsters of Rock @ Donington Park","date":"August 17, 1985","link":"https://www.metallica.com/events/event-12367.html","lng":-1.3788403,"lat":52.8305468}},{"type":"Feature","geometry":{"type":"Point","coordinates":[-122.422612,37.7905536]},"properties":{"id":"196","address":"San Francisco,California,United States","place":"Ruthies Inn","date":"August 24, 1985","link":"https://www.metallica.com/events/event-9326.html","lng":-122.422612,"lat":37.7905536}},{"type":"Feature","geometry":{"type":"Point","coordinates":[-122.2302014,37.8164542]},"properties":{"id":"197","address":"Oakland,California,United States","place":"Day on the Green @ Oakland Stadium","date":"August 31, 1985","link":"https://www.metallica.com/events/event-9327.html","lng":-122.2302014,"lat":37.8164542}},{"type":"Feature","geometry":{"type":"Point","coordinates":[7.731339,50.142481]},"properties":{"id":"198","address":"St. Goarshausen,Germany","place":"Metal Hammer Festival @ Freilichtbühne Loreley","date":"September 14, 1985","link":"https://www.metallica.com/events/event-9328.html","lng":7.731339,"lat":50.142481}},{"type":"Feature","geometry":{"type":"Point","coordinates":[-121.4943996,38.5815719]},"properties":{"id":"199","address":"Sacramento,California,United States","place":"Memorial Auditorium","date":"December 29, 1985","link":"https://www.metallica.com/events/event-9329.html","lng":-121.4943996,"lat":38.5815719}},{"type":"Feature","geometry":{"type":"Point","coordinates":[-122.4196412,37.7773082]},"properties":{"id":"200","address":"San Francisco,California,United States","place":"Civic Center","date":"December 31, 1985","link":"https://www.metallica.com/events/event-9330.html","lng":-122.4196412,"lat":37.7773082}},{"type":"Feature","geometry":{"type":"Point","coordinates":[-97.3215637,37.8363952]},"properties":{"id":"201","address":"Wichita,Kansas,United States","place":"Kansas Coliseum","date":"March 27, 1986","link":"https://www.metallica.com/events/event-9331.html","lng":-97.3215637,"lat":37.8363952}},{"type":"Feature","geometry":{"type":"Point","coordinates":[-97.5735497,35.4705453]},"properties":{"id":"202","address":"Oklahoma City,Oklahoma,United States","place":"Fairgrounds Arena","date":"March 29, 1986","link":"https://www.metallica.com/events/event-9332.html","lng":-97.5735497,"lat":35.4705453}},{"type":"Feature","geometry":{"type":"Point","coordinates":[-94.6059563,39.0917718]},"properties":{"id":"203","address":"Kansas City,Missouri,United States","place":"Kemper Arena","date":"April 1, 1986","link":"https://www.metallica.com/events/event-9333.html","lng":-94.6059563,"lat":39.0917718}},{"type":"Feature","geometry":{"type":"Point","coordinates":[-90.20181219999999,38.6280216]},"properties":{"id":"204","address":"St. Louis,Missouri,United States","place":"Kiel Auditorium","date":"April 2, 1986","link":"https://www.metallica.com/events/event-9334.html","lng":-90.20181219999999,"lat":38.6280216}},{"type":"Feature","geometry":{"type":"Point","coordinates":[-83.0526708,42.3252325]},"properties":{"id":"205","address":"Detroit,Michigan,United States","place":"Joe Louis Arena","date":"April 4, 1986","link":"https://www.metallica.com/events/event-9335.html","lng":-83.0526708,"lat":42.3252325}},{"type":"Feature","geometry":{"type":"Point","coordinates":[-87.6562505,41.8748335]},"properties":{"id":"206","address":"Chicago,Illinois,United States","place":"UIC Pavilion","date":"April 5, 1986","link":"https://www.metallica.com/events/event-9336.html","lng":-87.6562505,"lat":41.8748335}},{"type":"Feature","geometry":{"type":"Point","coordinates":[-87.9168359,43.0422275]},"properties":{"id":"207","address":"Milwaukee,Wisconsin,United States","place":"Mecca Arena","date":"April 6, 1986","link":"https://www.metallica.com/events/event-9337.html","lng":-87.9168359,"lat":43.0422275}},{"type":"Feature","geometry":{"type":"Point","coordinates":[-86.158068,39.768403]},"properties":{"id":"208","address":"Indianapolis,Indiana,United States","place":"Market Square Arena","date":"April 8, 1986","link":"https://www.metallica.com/events/event-9338.html","lng":-86.158068,"lat":39.768403}},{"type":"Feature","geometry":{"type":"Point","coordinates":[-81.6943605,41.49932]},"properties":{"id":"209","address":"Cleveland,Ohio,United States","place":"Richfield Coliseum","date":"April 9, 1986","link":"https://www.metallica.com/events/event-9339.html","lng":-81.6943605,"lat":41.49932}},{"type":"Feature","geometry":{"type":"Point","coordinates":[-80.085059,42.12922409999999]},"properties":{"id":"210","address":"Erie,Pennsylvania,United States","place":"Civic Center","date":"April 10, 1986","link":"https://www.metallica.com/events/event-9340.html","lng":-80.085059,"lat":42.12922409999999}},{"type":"Feature","geometry":{"type":"Point","coordinates":[-78.9232131,40.3233444]},"properties":{"id":"211","address":"Johnstown,Pennsylvania,United States","place":"Cambria County War Memorial Arena","date":"April 12, 1986","link":"https://www.metallica.com/events/event-9341.html","lng":-78.9232131,"lat":40.3233444}},{"type":"Feature","geometry":{"type":"Point","coordinates":[-76.1482,43.0448]},"properties":{"id":"212","address":"Syracuse,New York,United States","place":"Onondaga War Memorial","date":"April 13, 1986","link":"https://www.metallica.com/events/event-9342.html","lng":-76.1482,"lat":43.0448}},{"type":"Feature","geometry":{"type":"Point","coordinates":[-77.6108718,43.1538236]},"properties":{"id":"213","address":"Rochester,New York,United States","place":"Rochester Community War Memorial","date":"April 14, 1986","link":"https://www.metallica.com/events/event-9343.html","lng":-77.6108718,"lat":43.1538236}},{"type":"Feature","geometry":{"type":"Point","coordinates":[-76.8966397,38.9340002]},"properties":{"id":"214","address":"Landover,Maryland,United States","place":"Capital Centre","date":"April 16, 1986","link":"https://www.metallica.com/events/event-9344.html","lng":-76.8966397,"lat":38.9340002}},{"type":"Feature","geometry":{"type":"Point","coordinates":[-75.9131469,42.0956192]},"properties":{"id":"215","address":"Binghamton,New York,United States","place":"Broome County Veterans Memorial Arena","date":"April 17, 1986","link":"https://www.metallica.com/events/event-9345.html","lng":-75.9131469,"lat":42.0956192}},{"type":"Feature","geometry":{"type":"Point","coordinates":[-75.35740240000001,40.5852839]},"properties":{"id":"216","address":"Bethlehem,Pennsylvania,United States","place":"Stabler Arena","date":"April 18, 1986","link":"https://www.metallica.com/events/event-9346.html","lng":-75.35740240000001,"lat":40.5852839}},{"type":"Feature","geometry":{"type":"Point","coordinates":[-75.17108950000001,39.9043892]},"properties":{"id":"217","address":"Philadelphia,Pennsylvania,United States","place":"The Spectrum","date":"April 20, 1986","link":"https://www.metallica.com/events/event-9347.html","lng":-75.17108950000001,"lat":39.9043892}},{"type":"Feature","geometry":{"type":"Point","coordinates":[-74.0681438,40.8110498]},"properties":{"id":"218","address":"East Rutherford,New Jersey,United States","place":"Meadowlands Arena","date":"April 21, 1986","link":"https://www.metallica.com/events/event-9348.html","lng":-74.0681438,"lat":40.8110498}},{"type":"Feature","geometry":{"type":"Point","coordinates":[-71.4179556,41.8236281]},"properties":{"id":"219","address":"Providence,Rhode Island,United States","place":"Providence Civic Center","date":"April 23, 1986","link":"https://www.metallica.com/events/event-9349.html","lng":-71.4179556,"lat":41.8236281}},{"type":"Feature","geometry":{"type":"Point","coordinates":[-72.9278835,41.308274]},"properties":{"id":"220","address":"New Haven,Connecticut,United States","place":"New Haven Coliseum","date":"April 24, 1986","link":"https://www.metallica.com/events/event-9350.html","lng":-72.9278835,"lat":41.308274}},{"type":"Feature","geometry":{"type":"Point","coordinates":[-71.7986634,42.2644498]},"properties":{"id":"221","address":"Worcester,Massachusetts,United States","place":"Centrum In Worcester","date":"April 25, 1986","link":"https://www.metallica.com/events/event-9351.html","lng":-71.7986634,"lat":42.2644498}},{"type":"Feature","geometry":{"type":"Point","coordinates":[-73.6418534,43.3081669]},"properties":{"id":"222","address":"Glenn Falls,New York,United States","place":"Glenn Falls Civic Center","date":"April 27, 1986","link":"https://www.metallica.com/events/event-9352.html","lng":-73.6418534,"lat":43.3081669}},{"type":"Feature","geometry":{"type":"Point","coordinates":[-73.5906528,40.7232778]},"properties":{"id":"223","address":"Uniondale,New York,United States","place":"Nassau Veteran's Memorial Coliseum","date":"April 28, 1986","link":"https://www.metallica.com/events/event-9353.html","lng":-73.5906528,"lat":40.7232778}},{"type":"Feature","geometry":{"type":"Point","coordinates":[-80.9106857,35.1867006]},"properties":{"id":"224","address":"Charlotte,North Carolina,United States","place":"Charlotte Coliseum","date":"May 2, 1986","link":"https://www.metallica.com/events/event-9354.html","lng":-80.9106857,"lat":35.1867006}},{"type":"Feature","geometry":{"type":"Point","coordinates":[-82.3751915,36.3245425]},"properties":{"id":"225","address":"Johnson City,Tennessee,United States","place":"Freedom Hall","date":"May 3, 1986","link":"https://www.metallica.com/events/event-9355.html","lng":-82.3751915,"lat":36.3245425}},{"type":"Feature","geometry":{"type":"Point","coordinates":[-89.9804125,35.118321]},"properties":{"id":"226","address":"Memphis,Tennessee,United States","place":"Mid-South Coliseum","date":"May 4, 1986","link":"https://www.metallica.com/events/event-9356.html","lng":-89.9804125,"lat":35.118321}},{"type":"Feature","geometry":{"type":"Point","coordinates":[-90.0505103,30.0301449]},"properties":{"id":"227","address":"New Orleans,Louisiana,United States","place":"UNO Lakefront Arena","date":"May 6, 1986","link":"https://www.metallica.com/events/event-9357.html","lng":-90.0505103,"lat":30.0301449}},{"type":"Feature","geometry":{"type":"Point","coordinates":[-97.732185,30.2769359]},"properties":{"id":"228","address":"Austin,Texas,United States","place":"Frank Erwin Center","date":"May 8, 1986","link":"https://www.metallica.com/events/event-9358.html","lng":-97.732185,"lat":30.2769359}},{"type":"Feature","geometry":{"type":"Point","coordinates":[-95.43554309999999,29.7299685]},"properties":{"id":"229","address":"Houston,Texas,United States","place":"The Summit","date":"May 9, 1986","link":"https://www.metallica.com/events/event-9359.html","lng":-95.43554309999999,"lat":29.7299685}},{"type":"Feature","geometry":{"type":"Point","coordinates":[-97.32672749999999,32.7497874]},"properties":{"id":"230","address":"Ft. Worth,Texas,United States","place":"Tarrant County Convention Center","date":"May 10, 1986","link":"https://www.metallica.com/events/event-9360.html","lng":-97.32672749999999,"lat":32.7497874}},{"type":"Feature","geometry":{"type":"Point","coordinates":[-106.4416885,31.7647285]},"properties":{"id":"231","address":"El Paso,Texas,United States","place":"El Paso County Coliseum","date":"May 12, 1986","link":"https://www.metallica.com/events/event-9361.html","lng":-106.4416885,"lat":31.7647285}},{"type":"Feature","geometry":{"type":"Point","coordinates":[-106.5725377,35.0824252]},"properties":{"id":"232","address":"Albuquerque,New Mexico,United States","place":"Tingley Coliseum","date":"May 13, 1986","link":"https://www.metallica.com/events/event-9362.html","lng":-106.5725377,"lat":35.0824252}},{"type":"Feature","geometry":{"type":"Point","coordinates":[-104.990251,39.7392358]},"properties":{"id":"233","address":"Denver,Colorado,United States","place":"McNichols Sports Arena","date":"May 15, 1986","link":"https://www.metallica.com/events/event-9363.html","lng":-104.990251,"lat":39.7392358}},{"type":"Feature","geometry":{"type":"Point","coordinates":[-111.8961461,40.7678827]},"properties":{"id":"234","address":"Salt Lake City,Utah,United States","place":"Salt Palace Arena","date":"May 17, 1986","link":"https://www.metallica.com/events/event-9364.html","lng":-111.8961461,"lat":40.7678827}},{"type":"Feature","geometry":{"type":"Point","coordinates":[-110.9740303,32.2178071]},"properties":{"id":"235","address":"Tucson,Arizona,United States","place":"Tucson Community Center","date":"May 19, 1986","link":"https://www.metallica.com/events/event-9365.html","lng":-110.9740303,"lat":32.2178071}},{"type":"Feature","geometry":{"type":"Point","coordinates":[-112.096667,33.469444]},"properties":{"id":"236","address":"Phoenix,Arizona,United States","place":"Arizona Veterans Memorial Coliseum","date":"May 20, 1986","link":"https://www.metallica.com/events/event-9366.html","lng":-112.096667,"lat":33.469444}},{"type":"Feature","geometry":{"type":"Point","coordinates":[-95.994941,36.160996]},"properties":{"id":"237","address":"Tulsa,Oklahoma,United States","place":"Cain's Ballroom","date":"May 23, 1986","link":"https://www.metallica.com/events/event-9367.html","lng":-95.994941,"lat":36.160996}},{"type":"Feature","geometry":{"type":"Point","coordinates":[-89.51814759999999,37.3058839]},"properties":{"id":"238","address":"Cape Girardeau,Missouri,United States","place":"Arena Building","date":"May 24, 1986","link":"https://www.metallica.com/events/event-9368.html","lng":-89.51814759999999,"lat":37.3058839}},{"type":"Feature","geometry":{"type":"Point","coordinates":[-87.6578703,41.9693569]},"properties":{"id":"239","address":"Chicago,Illinois,United States","place":"Aragon Ballroom","date":"May 25, 1986","link":"https://www.metallica.com/events/event-9369.html","lng":-87.6578703,"lat":41.9693569}},{"type":"Feature","geometry":{"type":"Point","coordinates":[-93.5534728,41.5956761]},"properties":{"id":"240","address":"Des Moines,Iowa,United States","place":"Iowa State Fairgrounds","date":"May 26, 1986","link":"https://www.metallica.com/events/event-9370.html","lng":-93.5534728,"lat":41.5956761}},{"type":"Feature","geometry":{"type":"Point","coordinates":[-93.27746289999999,44.9763025]},"properties":{"id":"241","address":"Minneapolis,Minnesota,United States","place":"Orpheum Theatre","date":"May 28, 1986","link":"https://www.metallica.com/events/event-9371.html","lng":-93.27746289999999,"lat":44.9763025}},{"type":"Feature","geometry":{"type":"Point","coordinates":[-91.5833563,44.8439092]},"properties":{"id":"242","address":"Eau Claire,Wisconsin,United States","place":"Old Mill Expo Center","date":"May 29, 1986","link":"https://www.metallica.com/events/event-9372.html","lng":-91.5833563,"lat":44.8439092}},{"type":"Feature","geometry":{"type":"Point","coordinates":[-90.588016,41.52381200000001]},"properties":{"id":"243","address":"Davenport,Iowa,United States","place":"The Col Ballroom","date":"May 30, 1986","link":"https://www.metallica.com/events/event-9373.html","lng":-90.588016,"lat":41.52381200000001}},{"type":"Feature","geometry":{"type":"Point","coordinates":[-88.9518547,39.8442167]},"properties":{"id":"244","address":"Decatur,Illinois,United States","place":"Civic Arena","date":"May 31, 1986","link":"https://www.metallica.com/events/event-9374.html","lng":-88.9518547,"lat":39.8442167}},{"type":"Feature","geometry":{"type":"Point","coordinates":[-95.98787279999999,41.2632254]},"properties":{"id":"245","address":"Omaha,Nebraska,United States","place":"Peony Park","date":"June 1, 1986","link":"https://www.metallica.com/events/event-9375.html","lng":-95.98787279999999,"lat":41.2632254}},{"type":"Feature","geometry":{"type":"Point","coordinates":[-96.864632,32.758146]},"properties":{"id":"246","address":"Dallas,Texas,United States","place":"Bronco Bowl","date":"June 3, 1986","link":"https://www.metallica.com/events/event-9376.html","lng":-96.864632,"lat":32.758146}},{"type":"Feature","geometry":{"type":"Point","coordinates":[-97.3934501,27.7873353]},"properties":{"id":"247","address":"Corpus Christi,Texas,United States","place":"Memorial Coliseum","date":"June 4, 1986","link":"https://www.metallica.com/events/event-9377.html","lng":-97.3934501,"lat":27.7873353}},{"type":"Feature","geometry":{"type":"Point","coordinates":[-98.2232631,26.1864635]},"properties":{"id":"248","address":"McAllen,Texas,United States","place":"La Villa Real Convention Center","date":"June 5, 1986","link":"https://www.metallica.com/events/event-9378.html","lng":-98.2232631,"lat":26.1864635}},{"type":"Feature","geometry":{"type":"Point","coordinates":[-98.4906058,29.4261726]},"properties":{"id":"249","address":"San Antonio,Texas,United States","place":"Majestic Theatre","date":"June 6, 1986","link":"https://www.metallica.com/events/event-9379.html","lng":-98.4906058,"lat":29.4261726}},{"type":"Feature","geometry":{"type":"Point","coordinates":[-102.3875,31.8838889]},"properties":{"id":"250","address":"Odessa,Texas,United States","place":"Ector County Coliseum","date":"June 7, 1986","link":"https://www.metallica.com/events/event-9380.html","lng":-102.3875,"lat":31.8838889}},{"type":"Feature","geometry":{"type":"Point","coordinates":[-117.2122261,32.7553268]},"properties":{"id":"251","address":"San Diego,California,United States","place":"San Diego Sports Arena","date":"June 10, 1986","link":"https://www.metallica.com/events/event-9381.html","lng":-117.2122261,"lat":32.7553268}},{"type":"Feature","geometry":{"type":"Point","coordinates":[-115.144046,36.1048084]},"properties":{"id":"252","address":"Las Vegas,Nevada,United States","place":"Thomas & Mack Center","date":"June 11, 1986","link":"https://www.metallica.com/events/event-9382.html","lng":-115.144046,"lat":36.1048084}},{"type":"Feature","geometry":{"type":"Point","coordinates":[-118.1893688,33.7648004]},"properties":{"id":"253","address":"Long Beach,California,United States","place":"Long Beach Arena","date":"June 13, 1986","link":"https://www.metallica.com/events/event-9383.html","lng":-118.1893688,"lat":33.7648004}},{"type":"Feature","geometry":{"type":"Point","coordinates":[-118.1893688,33.7648004]},"properties":{"id":"254","address":"Long Beach,California,United States","place":"Long Beach Arena","date":"June 14, 1986","link":"https://www.metallica.com/events/event-9384.html","lng":-118.1893688,"lat":33.7648004}},{"type":"Feature","geometry":{"type":"Point","coordinates":[-118.1893688,33.7648004]},"properties":{"id":"255","address":"Long Beach,California,United States","place":"Long Beach Arena","date":"June 15, 1986","link":"https://www.metallica.com/events/event-9385.html","lng":-118.1893688,"lat":33.7648004}},{"type":"Feature","geometry":{"type":"Point","coordinates":[-122.420378,37.707711]},"properties":{"id":"256","address":"San Francisco,California,United States","place":"Cow Palace","date":"June 17, 1986","link":"https://www.metallica.com/events/event-9386.html","lng":-122.420378,"lat":37.707711}},{"type":"Feature","geometry":{"type":"Point","coordinates":[-121.4283216,38.5890996]},"properties":{"id":"257","address":"Sacramento,California,United States","place":"Cal Expo Amp","date":"June 18, 1986","link":"https://www.metallica.com/events/event-9387.html","lng":-121.4283216,"lat":38.5890996}},{"type":"Feature","geometry":{"type":"Point","coordinates":[-122.9115326,42.3851557]},"properties":{"id":"258","address":"Medford,Oregon,United States","place":"Jackson County Expo Park","date":"June 20, 1986","link":"https://www.metallica.com/events/event-9388.html","lng":-122.9115326,"lat":42.3851557}},{"type":"Feature","geometry":{"type":"Point","coordinates":[-122.3540714,47.62207129999999]},"properties":{"id":"259","address":"Seattle,Washington,United States","place":"Seattle Center Coliseum","date":"June 21, 1986","link":"https://www.metallica.com/events/event-9389.html","lng":-122.3540714,"lat":47.62207129999999}},{"type":"Feature","geometry":{"type":"Point","coordinates":[-122.3540714,47.62207129999999]},"properties":{"id":"260","address":"Seattle,Washington,United States","place":"Seattle Center Coliseum","date":"June 22, 1986","link":"https://www.metallica.com/events/event-9390.html","lng":-122.3540714,"lat":47.62207129999999}},{"type":"Feature","geometry":{"type":"Point","coordinates":[-117.4221143,47.6664378]},"properties":{"id":"261","address":"Spokane,Washington,United States","place":"Spokane Coliseum","date":"June 24, 1986","link":"https://www.metallica.com/events/event-9391.html","lng":-117.4221143,"lat":47.6664378}},{"type":"Feature","geometry":{"type":"Point","coordinates":[-122.6693299,45.532141]},"properties":{"id":"262","address":"Portland,Oregon,United States","place":"Portland Memorial Coliseum","date":"June 25, 1986","link":"https://www.metallica.com/events/event-9392.html","lng":-122.6693299,"lat":45.532141}},{"type":"Feature","geometry":{"type":"Point","coordinates":[-123.043632,49.285674]},"properties":{"id":"263","address":"Vancouver,British Columbia,Canada","place":"PNE Coliseum","date":"June 27, 1986","link":"https://www.metallica.com/events/event-9393.html","lng":-123.043632,"lat":49.285674}},{"type":"Feature","geometry":{"type":"Point","coordinates":[-114.0519341,51.0374336]},"properties":{"id":"264","address":"Calgary,Alberta,Canada","place":"Olympic Saddledome","date":"June 29, 1986","link":"https://www.metallica.com/events/event-9394.html","lng":-114.0519341,"lat":51.0374336}},{"type":"Feature","geometry":{"type":"Point","coordinates":[-113.4559265,53.5713144]},"properties":{"id":"265","address":"Edmonton,Alberta,Canada","place":"Northlands Coliseum","date":"June 30, 1986","link":"https://www.metallica.com/events/event-9395.html","lng":-113.4559265,"lat":53.5713144}},{"type":"Feature","geometry":{"type":"Point","coordinates":[25.7472567,62.2426034]},"properties":{"id":"266","address":"Jyväskylä,Finland","place":"Saapasjalka","date":"July 5, 1986","link":"https://www.metallica.com/events/event-9396.html","lng":25.7472567,"lat":62.2426034}},{"type":"Feature","geometry":{"type":"Point","coordinates":[12.0788892,55.6219605]},"properties":{"id":"267","address":"Roskilde,Denmark","place":"Roskilde Festival @ Festivalpladsen","date":"July 6, 1986","link":"https://www.metallica.com/events/event-9397.html","lng":12.0788892,"lat":55.6219605}},{"type":"Feature","geometry":{"type":"Point","coordinates":[-91.66751,41.980154]},"properties":{"id":"268","address":"Cedar Rapids,Iowa,United States","place":"Five Seasons Center","date":"July 8, 1986","link":"https://www.metallica.com/events/event-9398.html","lng":-91.66751,"lat":41.980154}},{"type":"Feature","geometry":{"type":"Point","coordinates":[-88.0570321,44.5001724]},"properties":{"id":"269","address":"Green Bay,Wisconsin,United States","place":"Brown County Veterans Memorial Arena","date":"July 11, 1986","link":"https://www.metallica.com/events/event-9399.html","lng":-88.0570321,"lat":44.5001724}},{"type":"Feature","geometry":{"type":"Point","coordinates":[-88.43384999999999,42.7380042]},"properties":{"id":"270","address":"East Troy,Wisconsin,United States","place":"Alpine Valley Music Theatre","date":"July 12, 1986","link":"https://www.metallica.com/events/event-9400.html","lng":-88.43384999999999,"lat":42.7380042}},{"type":"Feature","geometry":{"type":"Point","coordinates":[-87.6297982,41.8781136]},"properties":{"id":"271","address":"Chicago,Illinois,United States","place":"Poplar Creek Music Theater","date":"July 13, 1986","link":"https://www.metallica.com/events/event-9401.html","lng":-87.6297982,"lat":41.8781136}},{"type":"Feature","geometry":{"type":"Point","coordinates":[-89.5939612,40.69169369999999]},"properties":{"id":"272","address":"Peoria,Illinois,United States","place":"Peoria Civic Center","date":"July 15, 1986","link":"https://www.metallica.com/events/event-9402.html","lng":-89.5939612,"lat":40.69169369999999}},{"type":"Feature","geometry":{"type":"Point","coordinates":[-85.1241912,41.1156883]},"properties":{"id":"273","address":"Fort Wayne,Indiana,United States","place":"Allen County War Memorial Coliseum","date":"July 16, 1986","link":"https://www.metallica.com/events/event-9403.html","lng":-85.1241912,"lat":41.1156883}},{"type":"Feature","geometry":{"type":"Point","coordinates":[-82.99746379999999,39.96307950000001]},"properties":{"id":"274","address":"Columbus,Ohio,United States","place":"Columbus Center","date":"July 17, 1986","link":"https://www.metallica.com/events/event-9404.html","lng":-82.99746379999999,"lat":39.96307950000001}},{"type":"Feature","geometry":{"type":"Point","coordinates":[-85.1853713,42.3194284]},"properties":{"id":"275","address":"Battle Creek,Michigan,United States","place":"Kellogg Arena","date":"July 19, 1986","link":"https://www.metallica.com/events/event-9405.html","lng":-85.1853713,"lat":42.3194284}},{"type":"Feature","geometry":{"type":"Point","coordinates":[-83.9508068,43.4194699]},"properties":{"id":"276","address":"Saginaw,Michigan,United States","place":"Wendler Arena","date":"July 20, 1986","link":"https://www.metallica.com/events/event-9406.html","lng":-83.9508068,"lat":43.4194699}},{"type":"Feature","geometry":{"type":"Point","coordinates":[-83.3722868,42.745146]},"properties":{"id":"277","address":"Detroit,Michigan,United States","place":"Pine Knob Music Theatre","date":"July 21, 1986","link":"https://www.metallica.com/events/event-9407.html","lng":-83.3722868,"lat":42.745146}},{"type":"Feature","geometry":{"type":"Point","coordinates":[-84.41889669999999,39.0519431]},"properties":{"id":"278","address":"Cincinnati,Ohio,United States","place":"Riverbend Music Center","date":"July 24, 1986","link":"https://www.metallica.com/events/event-9408.html","lng":-84.41889669999999,"lat":39.0519431}},{"type":"Feature","geometry":{"type":"Point","coordinates":[-85.7422758,38.2016084]},"properties":{"id":"279","address":"Louisville,Kentucky,United States","place":"Kentucky Fairgrounds Stadium","date":"July 25, 1986","link":"https://www.metallica.com/events/event-9409.html","lng":-85.7422758,"lat":38.2016084}},{"type":"Feature","geometry":{"type":"Point","coordinates":[-87.6041607,37.9947509]},"properties":{"id":"280","address":"Evansville,Indiana,United States","place":"Mesker Theatre","date":"July 26, 1986","link":"https://www.metallica.com/events/event-9410.html","lng":-87.6041607,"lat":37.9947509}},{"type":"Feature","geometry":{"type":"Point","coordinates":[-86.78229999999999,36.1675]},"properties":{"id":"281","address":"Nashville,Tennessee,United States","place":"Nashville Muncipal Auditorium","date":"July 27, 1986","link":"https://www.metallica.com/events/event-9411.html","lng":-86.78229999999999,"lat":36.1675}},{"type":"Feature","geometry":{"type":"Point","coordinates":[-85.30093149999999,35.0503624]},"properties":{"id":"282","address":"Chattanooga,Tennessee,United States","place":"UTC Arena","date":"July 29, 1986","link":"https://www.metallica.com/events/event-9412.html","lng":-85.30093149999999,"lat":35.0503624}},{"type":"Feature","geometry":{"type":"Point","coordinates":[-83.91174219999999,35.9655086]},"properties":{"id":"283","address":"Knoxville,Tennessee,United States","place":"Knoxville Civic Coliseum","date":"July 30, 1986","link":"https://www.metallica.com/events/event-9413.html","lng":-83.91174219999999,"lat":35.9655086}},{"type":"Feature","geometry":{"type":"Point","coordinates":[-81.63999910000001,38.3559922]},"properties":{"id":"284","address":"Charleston,West Virginia,United States","place":"Charleston Civic Center","date":"August 1, 1986","link":"https://www.metallica.com/events/event-9414.html","lng":-81.63999910000001,"lat":38.3559922}},{"type":"Feature","geometry":{"type":"Point","coordinates":[-76.86269949999999,39.2088816]},"properties":{"id":"285","address":"Columbia,Maryland,United States","place":"Merriweather Post Pavilion","date":"August 2, 1986","link":"https://www.metallica.com/events/event-9415.html","lng":-76.86269949999999,"lat":39.2088816}},{"type":"Feature","geometry":{"type":"Point","coordinates":[-76.38132,37.03472800000001]},"properties":{"id":"286","address":"Hampton,Virginia,United States","place":"Hampton Coliseum","date":"August 3, 1986","link":"https://www.metallica.com/events/event-9416.html","lng":-76.38132,"lat":37.03472800000001}},{"type":"Feature","geometry":{"type":"Point","coordinates":[-3.1765908,51.4802476]},"properties":{"id":"287","address":"Cardiff,Wales","place":"St. David's Hall","date":"September 10, 1986","link":"https://www.metallica.com/events/event-12368.html","lng":-3.1765908,"lat":51.4802476}},{"type":"Feature","geometry":{"type":"Point","coordinates":[-1.7512483,53.79251989999999]},"properties":{"id":"288","address":"Bradford,England","place":"St. George's Hall","date":"September 11, 1986","link":"https://www.metallica.com/events/event-12369.html","lng":-1.7512483,"lat":53.79251989999999}},{"type":"Feature","geometry":{"type":"Point","coordinates":[-3.1853968,55.9568976]},"properties":{"id":"289","address":"Edinburgh,Scotland","place":"The Edinburgh Playhouse","date":"September 12, 1986","link":"https://www.metallica.com/events/event-12370.html","lng":-3.1853968,"lat":55.9568976}},{"type":"Feature","geometry":{"type":"Point","coordinates":[-6.2603097,53.3498053]},"properties":{"id":"290","address":"Dublin,Ireland","place":"SFX Hall","date":"September 14, 1986","link":"https://www.metallica.com/events/event-9417.html","lng":-6.2603097,"lat":53.3498053}},{"type":"Feature","geometry":{"type":"Point","coordinates":[-5.930834099999999,54.5946477]},"properties":{"id":"291","address":"Belfast,Northern Ireland,Northern Ireland","place":"Ulster Hall","date":"September 15, 1986","link":"https://www.metallica.com/events/event-12371.html","lng":-5.930834099999999,"lat":54.5946477}},{"type":"Feature","geometry":{"type":"Point","coordinates":[-2.2221418,53.4695675]},"properties":{"id":"292","address":"Manchester,England","place":"Apollo Theatre","date":"September 17, 1986","link":"https://www.metallica.com/events/event-12372.html","lng":-2.2221418,"lat":53.4695675}},{"type":"Feature","geometry":{"type":"Point","coordinates":[-1.4722822,53.3805784]},"properties":{"id":"293","address":"Sheffield,England","place":"City Hall","date":"September 18, 1986","link":"https://www.metallica.com/events/event-12373.html","lng":-1.4722822,"lat":53.3805784}},{"type":"Feature","geometry":{"type":"Point","coordinates":[-1.6118421,54.9933186]},"properties":{"id":"294","address":"Newcastle,England","place":"Mayfair","date":"September 19, 1986","link":"https://www.metallica.com/events/event-12374.html","lng":-1.6118421,"lat":54.9933186}},{"type":"Feature","geometry":{"type":"Point","coordinates":[-1.8978794,52.476177]},"properties":{"id":"295","address":"Birmingham,England","place":"Odeon Theatre","date":"September 20, 1986","link":"https://www.metallica.com/events/event-12375.html","lng":-1.8978794,"lat":52.476177}},{"type":"Feature","geometry":{"type":"Point","coordinates":[-0.2246149,51.4910564]},"properties":{"id":"296","address":"London,England","place":"Hammersmith Odeon","date":"September 21, 1986","link":"https://www.metallica.com/events/event-12376.html","lng":-0.2246149,"lat":51.4910564}},{"type":"Feature","geometry":{"type":"Point","coordinates":[13.1910073,55.7046601]},"properties":{"id":"297","address":"Lund,Sweden","place":"Olympus","date":"September 24, 1986","link":"https://www.metallica.com/events/event-9418.html","lng":13.1910073,"lat":55.7046601}},{"type":"Feature","geometry":{"type":"Point","coordinates":[11.0691115,59.9621448]},"properties":{"id":"298","address":"Lillestrom,Norway","place":"Skedsmohallen","date":"September 25, 1986","link":"https://www.metallica.com/events/event-9419.html","lng":11.0691115,"lat":59.9621448}},{"type":"Feature","geometry":{"type":"Point","coordinates":[17.988741,59.358966]},"properties":{"id":"299","address":"Stockholm,Sweden","place":"Solnahallen","date":"September 26, 1986","link":"https://www.metallica.com/events/event-9420.html","lng":17.988741,"lat":59.358966}},{"type":"Feature","geometry":{"type":"Point","coordinates":[10.3908569,55.4254293]},"properties":{"id":"300","address":"Copenhagen,Denmark","place":"Saga","date":"September 27, 1986","link":"https://www.metallica.com/events/event-9421.html","lng":10.3908569,"lat":55.4254293}},{"type":"Feature","geometry":{"type":"Point","coordinates":[10.0068536,53.5494431]},"properties":{"id":"301","address":"Hamburg,Germany","place":"Markthalle","date":"September 29, 1986","link":"https://www.metallica.com/events/event-12377.html","lng":10.0068536,"lat":53.5494431}},{"type":"Feature","geometry":{"type":"Point","coordinates":[8.0673043,52.2833079]},"properties":{"id":"302","address":"Osnabrück,Germany","place":"Halle Gartlage","date":"September 30, 1986","link":"https://www.metallica.com/events/event-12378.html","lng":8.0673043,"lat":52.2833079}},{"type":"Feature","geometry":{"type":"Point","coordinates":[6.9854819,49.2487543]},"properties":{"id":"303","address":"Saarbrücken,Germany","place":"Saarlandhalle","date":"October 1, 1986","link":"https://www.metallica.com/events/event-12379.html","lng":6.9854819,"lat":49.2487543}},{"type":"Feature","geometry":{"type":"Point","coordinates":[7.7554942,48.5985555]},"properties":{"id":"304","address":"Strasbourg,France","place":"Hall Tivoli","date":"October 3, 1986","link":"https://www.metallica.com/events/event-9422.html","lng":7.7554942,"lat":48.5985555}},{"type":"Feature","geometry":{"type":"Point","coordinates":[3.0864509,45.7859628]},"properties":{"id":"305","address":"Clermont-Ferrand,France","place":"Maison des Sports","date":"October 4, 1986","link":"https://www.metallica.com/events/event-9423.html","lng":3.0864509,"lat":45.7859628}},{"type":"Feature","geometry":{"type":"Point","coordinates":[2.3932285,48.89420459999999]},"properties":{"id":"306","address":"Paris,France","place":"Le Zénith","date":"October 6, 1986","link":"https://www.metallica.com/events/event-9424.html","lng":2.3932285,"lat":48.89420459999999}},{"type":"Feature","geometry":{"type":"Point","coordinates":[4.8481846,45.7593896]},"properties":{"id":"307","address":"Lyon,France","place":"La Bourse du Travail","date":"October 7, 1986","link":"https://www.metallica.com/events/event-9425.html","lng":4.8481846,"lat":45.7593896}},{"type":"Feature","geometry":{"type":"Point","coordinates":[2.168568,41.3873974]},"properties":{"id":"308","address":"Barcelona,Spain","place":"Palau dels Esports de Barcelona","date":"October 8, 1986","link":"https://www.metallica.com/events/event-9426.html","lng":2.168568,"lat":41.3873974}},{"type":"Feature","geometry":{"type":"Point","coordinates":[-3.7037902,40.4167754]},"properties":{"id":"309","address":"Madrid,Spain","place":"Sports City of Real Madrid Pavilion","date":"October 9, 1986","link":"https://www.metallica.com/events/event-9427.html","lng":-3.7037902,"lat":40.4167754}},{"type":"Feature","geometry":{"type":"Point","coordinates":[1.4543856,43.5999198]},"properties":{"id":"310","address":"Toulouse,France","place":"Halle aux Grains","date":"October 11, 1986","link":"https://www.metallica.com/events/event-9428.html","lng":1.4543856,"lat":43.5999198}},{"type":"Feature","geometry":{"type":"Point","coordinates":[5.3862458,43.3148239]},"properties":{"id":"311","address":"Marseille,France","place":"Chapiteau","date":"October 12, 1986","link":"https://www.metallica.com/events/event-9429.html","lng":5.3862458,"lat":43.3148239}},{"type":"Feature","geometry":{"type":"Point","coordinates":[7.2678184,43.695449]},"properties":{"id":"312","address":"Nice,France","place":"Théâtre de Verdure","date":"October 13, 1986","link":"https://www.metallica.com/events/event-9430.html","lng":7.2678184,"lat":43.695449}},{"type":"Feature","geometry":{"type":"Point","coordinates":[9.1291633,45.4909202]},"properties":{"id":"313","address":"Milan,Italy","place":"Palatrussardi","date":"October 14, 1986","link":"https://www.metallica.com/events/event-9431.html","lng":9.1291633,"lat":45.4909202}},{"type":"Feature","geometry":{"type":"Point","coordinates":[9.2267492,48.7939944]},"properties":{"id":"314","address":"Stuttgart,Germany","place":"Hanns-Martin-Schleyer-Halle","date":"October 17, 1986","link":"https://www.metallica.com/events/event-12380.html","lng":9.2267492,"lat":48.7939944}},{"type":"Feature","geometry":{"type":"Point","coordinates":[8.5060045,47.3678151]},"properties":{"id":"315","address":"Zürich,Switzerland","place":"Sportzentrum","date":"October 18, 1986","link":"https://www.metallica.com/events/event-9432.html","lng":8.5060045,"lat":47.3678151}},{"type":"Feature","geometry":{"type":"Point","coordinates":[11.0766654,49.4521018]},"properties":{"id":"316","address":"Nuremberg,Germany","place":"Hemmerleinhalle","date":"October 19, 1986","link":"https://www.metallica.com/events/event-12381.html","lng":11.0766654,"lat":49.4521018}},{"type":"Feature","geometry":{"type":"Point","coordinates":[11.5500329,48.1452788]},"properties":{"id":"317","address":"Munich,Germany","place":"Circus Krone","date":"October 20, 1986","link":"https://www.metallica.com/events/event-12382.html","lng":11.5500329,"lat":48.1452788}},{"type":"Feature","geometry":{"type":"Point","coordinates":[8.776950000000001,50.0826865]},"properties":{"id":"318","address":"Offenbach,Germany","place":"Stadthalle","date":"October 21, 1986","link":"https://www.metallica.com/events/event-12383.html","lng":8.776950000000001,"lat":50.0826865}},{"type":"Feature","geometry":{"type":"Point","coordinates":[8.466039499999999,49.4874592]},"properties":{"id":"319","address":"Mannheim,Germany","place":"Musensaal","date":"October 23, 1986","link":"https://www.metallica.com/events/event-12384.html","lng":8.466039499999999,"lat":49.4874592}},{"type":"Feature","geometry":{"type":"Point","coordinates":[6.808599999999999,51.206245]},"properties":{"id":"320","address":"Dusseldorf,Germany","place":"Philipshalle","date":"October 24, 1986","link":"https://www.metallica.com/events/event-12385.html","lng":6.808599999999999,"lat":51.206245}},{"type":"Feature","geometry":{"type":"Point","coordinates":[5.486431,50.964719]},"properties":{"id":"321","address":"Genk,Belgium","place":"Limburghal","date":"October 25, 1986","link":"https://www.metallica.com/events/event-9433.html","lng":5.486431,"lat":50.964719}},{"type":"Feature","geometry":{"type":"Point","coordinates":[6.0813229,52.5111755]},"properties":{"id":"322","address":"Zwolle,Netherlands","place":"Ijsselhallen","date":"October 26, 1986","link":"https://www.metallica.com/events/event-9434.html","lng":6.0813229,"lat":52.5111755}},{"type":"Feature","geometry":{"type":"Point","coordinates":[-118.5360517,34.2011141]},"properties":{"id":"323","address":"Reseda,California,United States","place":"Country Club","date":"November 8, 1986","link":"https://www.metallica.com/events/event-9435.html","lng":-118.5360517,"lat":34.2011141}},{"type":"Feature","geometry":{"type":"Point","coordinates":[-117.9143012,33.8365932]},"properties":{"id":"324","address":"Anaheim,California,United States","place":"Jezebel's","date":"November 9, 1986","link":"https://www.metallica.com/events/event-9436.html","lng":-117.9143012,"lat":33.8365932}},{"type":"Feature","geometry":{"type":"Point","coordinates":[139.6985553,35.6642039]},"properties":{"id":"325","address":"Tokyo,Japan","place":"Shibuya Kokaido","date":"November 15, 1986","link":"https://www.metallica.com/events/event-9437.html","lng":139.6985553,"lat":35.6642039}},{"type":"Feature","geometry":{"type":"Point","coordinates":[136.9065571,35.18145060000001]},"properties":{"id":"326","address":"Nagoya,Japan","place":"Aichi Kinro Kaikan","date":"November 17, 1986","link":"https://www.metallica.com/events/event-9438.html","lng":136.9065571,"lat":35.18145060000001}},{"type":"Feature","geometry":{"type":"Point","coordinates":[135.4969513,34.6935888]},"properties":{"id":"327","address":"Osaka,Japan","place":"Festival Hall","date":"November 18, 1986","link":"https://www.metallica.com/events/event-9439.html","lng":135.4969513,"lat":34.6935888}},{"type":"Feature","geometry":{"type":"Point","coordinates":[139.6647403,35.7075813]},"properties":{"id":"328","address":"Tokyo,Japan","place":"Sun Plaza Hall","date":"November 19, 1986","link":"https://www.metallica.com/events/event-9440.html","lng":139.6647403,"lat":35.7075813}},{"type":"Feature","geometry":{"type":"Point","coordinates":[139.6647403,35.7075813]},"properties":{"id":"329","address":"Tokyo,Japan","place":"Sun Plaza Hall","date":"November 20, 1986","link":"https://www.metallica.com/events/event-9441.html","lng":139.6647403,"lat":35.7075813}},{"type":"Feature","geometry":{"type":"Point","coordinates":[-71.4170207,41.8301223]},"properties":{"id":"330","address":"Providence,Rhode Island,United States","place":"Veterans Memorial Auditorium","date":"November 26, 1986","link":"https://www.metallica.com/events/event-9442.html","lng":-71.4170207,"lat":41.8301223}},{"type":"Feature","geometry":{"type":"Point","coordinates":[-73.9297923,41.7050768]},"properties":{"id":"331","address":"Poughkeepsie,New York,United States","place":"Mid-Hudson Civic Center","date":"November 28, 1986","link":"https://www.metallica.com/events/event-9443.html","lng":-73.9297923,"lat":41.7050768}},{"type":"Feature","geometry":{"type":"Point","coordinates":[-74.1284764,40.8567662]},"properties":{"id":"332","address":"Passaic,New Jersey,United States","place":"Capital Theatre","date":"November 29, 1986","link":"https://www.metallica.com/events/event-9444.html","lng":-74.1284764,"lat":40.8567662}},{"type":"Feature","geometry":{"type":"Point","coordinates":[-72.703327,41.759417]},"properties":{"id":"333","address":"Hartford,Connecticut,United States","place":"West Hartford Ballroom","date":"November 30, 1986","link":"https://www.metallica.com/events/event-9445.html","lng":-72.703327,"lat":41.759417}},{"type":"Feature","geometry":{"type":"Point","coordinates":[-73.9933101,40.7504771]},"properties":{"id":"334","address":"New York,New York,United States","place":"Felt Forum","date":"December 1, 1986","link":"https://www.metallica.com/events/event-9446.html","lng":-73.9933101,"lat":40.7504771}},